pwsid,name,type,population,owner_type,primary_source,address,lat,lng,total_violations,health_violations,unaddressed_violations,risk_level,marker_color
GA0010000,BAXLEY,CWS,5749,L,GW,"BAXLEY, Appling County, GA",31.7793,-82.347,1,0,0,Low,yellow
GA0010001,SURRENCY,CWS,468,L,GW,"SURRENCY, Appling County, GA",31.7252,-82.1912,16,0,0,Low,yellow
GA0010002,ALTAMAHA ELEMENTARY SCHOOL,NTNCWS,420,L,GW,"BAXLEY, Appling County, GA",31.7793,-82.347,21,2,0,High,red
GA0010003,FOURTH DISTRICT ELEM. SCHOOL,NTNCWS,200,L,GW,"BAXLEY, Appling County, GA",31.7793,-82.347,5,0,0,Low,yellow
GA0010006,GA BAPTIST CHILDREN`S HOME - BAXLEY,CWS,58,P,GW,"BAXLEY, Appling County, GA",31.7793,-82.347,13,0,0,Low,yellow
GA0010019,COOPER TRAVEL TRAILER PARK,TNCWS,15,P,GW,"BAXLEY, Appling County, GA",31.7793,-82.347,11,1,0,High,red
GA0010043,GRAHAM WATER SYSTEM,CWS,413,L,GW,"GRAHAM, Appling County, GA",31.7252,-82.1912,60,0,0,Low,yellow
GA0010044,BARBARA DEAN'S STEAKHOUSE,TNCWS,25,P,GW,"BAXLEY, Appling County, GA",31.7793,-82.347,19,3,0,High,red
GA0030000,PEARSON,CWS,2200,L,GW,"PEARSON, Atkinson County, GA",32.821546605209285,-83.95765206614354,68,1,3,High,red
GA0030001,WILLACOOCHEE WATER SYSTEM,CWS,1435,L,GW,"WILLACOOCHEE, Atkinson County, GA",32.96393945841496,-83.05050111078216,34,12,0,High,red
GA0030004,HERITAGE HILLS,CWS,132,P,GW,"SAVANNAH, Atkinson County, GA",32.0835,-81.0998,25,0,0,Low,yellow
GA0030005,THE OAKS SUBDIVISION,CWS,58,P,GW,"SAVANNAH, Atkinson County, GA",32.0835,-81.0998,27,0,0,Low,yellow
GA0030006,TRIPLE O MOBILE HOME PARK,CWS,73,P,GW,"PEARSON, Atkinson County, GA",32.77111870696338,-82.55861398845262,30,0,1,Medium,orange
GA0050000,ALMA,CWS,4064,L,GW,"ALMA, Bacon County, GA",32.38305135229504,-84.22447741584703,20,0,0,Low,yellow
GA0050001,MILLIKEN & COMPANY,NTNCWS,220,P,GW,"NICHOLLS, Bacon County, GA",33.00386428315394,-83.34624850059156,2,0,0,Low,yellow
GA0050007,HIGHLAND PARK SUBDIVISION,CWS,65,P,GW,"ALMA, Bacon County, GA",32.75546658029462,-83.57900494537154,28,3,0,High,red
GA0070000,NEWTON,CWS,775,L,GW,"NEWTON, Baker County, GA",32.26289683806682,-84.71261252307019,116,5,6,High,red
GA0070005,ICHAUWAY # 1,NTNCWS,60,P,GW,"NEWTON, Baker County, GA",32.92425242921096,-83.68181689744225,0,0,0,Good,green
GA0070006,ICHAUWAY #2,CWS,59,P,GW,"NEWTON, Baker County, GA",31.723376907907443,-82.9014433466449,4,0,0,Low,yellow
GA0090000,BALDWIN COUNTY,CWS,23067,L,SWP,"MILLEDGEVILLE, Baldwin County, GA",33.64065686890436,-82.69225453470479,83,73,0,High,red
GA0090001,MILLEDGEVILLE,CWS,20540,L,SW,"MILLEDGEVILLE, Baldwin County, GA",32.28787012409095,-84.32624146756304,33,19,0,High,red
GA0090042,MERIWETHER-GOLDEN POND SUBDIVISION,CWS,124,P,GW,"EATONTON, Baldwin County, GA",32.98207959891942,-84.62684340705923,13,4,0,High,red
GA0090046,LANDS END SUBDIVISION,CWS,42,P,SWP,"EATONTON, Baldwin County, GA",32.218045911215654,-82.77199601553004,34,4,0,High,red
GA0090047,BALDWIN FOREST SUBDIVISION,CWS,32,P,GW,"EATONTON, Baldwin County, GA",33.534489249274216,-82.58828857608036,0,0,0,Good,green
GA0110000,HOMER,CWS,900,L,SWP,"HOMER, Banks County, GA",32.937293429791886,-82.14859085361886,58,30,0,High,red
GA0110001,MAYSVILLE WATER SYSTEM,CWS,2838,L,SWP,"MAYSVILLE, Banks County, GA",33.45426675732739,-83.93604210532384,85,65,0,High,red
GA0110026,BANKS CO - MOUNTAIN CREEK,CWS,6453,L,SW,"HOMER, Banks County, GA",33.22768282619535,-84.89842739232171,16,0,0,Low,yellow
GA0110028,SCALES CREEK GOLF COURSE,CWS,50,L,SWP,"HOMER, Banks County, GA",33.14705290390745,-83.53913958241301,17,0,0,Low,yellow
GA0110029,HIDDEN LAKE SUBDIVISION,CWS,105,L,SWP,"HOMER, Banks County, GA",31.922018064486835,-83.60279284172962,11,0,0,Low,yellow
GA0110030,CHIMNEY OAKS,CWS,368,P,SWP,"HOMER, Banks County, GA",32.41389716233588,-83.74294238853825,1,0,0,Low,yellow
GA0110031,APPLE PIE RIDGE SUBDIVISION,CWS,49,P,SWP,"BALDWIN, Banks County, GA",32.0835,-81.0998,0,0,0,Good,green
GA0130000,AUBURN,CWS,10060,L,SWP,"AUBURN, Barrow County, GA",32.273579730157074,-83.80942875283132,45,37,0,High,red
GA0130001,STATHAM,CWS,3986,L,SWP,"STATHAM, Barrow County, GA",33.016991024042696,-83.17415023746217,72,5,0,High,red
GA0130002,WINDER,CWS,51540,L,SW,"WINDER, Barrow County, GA",31.66833751526557,-84.2484412896005,24,4,0,High,red
GA0130008,BENT CREEK SUBDIVISION,CWS,203,P,GW,"EATONTON, Barrow County, GA",33.58701217233979,-82.56342433902385,43,0,0,Low,yellow
GA0130011,AUBURN MOBILE HOME PARK,CWS,159,P,SWP,"AUBURN, Barrow County, GA",32.07155154108473,-82.69650506292142,86,5,2,High,red
GA0130031,BARROW COUNTY WATER SYSTEM,CWS,17893,L,SWP,"WINDER, Barrow County, GA",32.58406332895857,-82.52861791916067,17,11,0,High,red
GA0130032,OAK HILLS WATER SYSTEM,CWS,192,P,SWP,"WATKINSVILLE, Barrow County, GA",32.848988556455225,-83.01692001863651,60,19,0,High,red
GA0130033,RIVER BLUFF SUBDIVISION,CWS,105,P,GW,"WATKINSVILLE, Barrow County, GA",32.511637773497625,-82.58849609798479,137,95,0,High,red
GA0150000,ADAIRSVILLE,CWS,7306,L,GU,"ADAIRSVILLE, Bartow County, GA",32.99122480469671,-84.9273282376123,23,3,0,High,red
GA0150001,BARTOW COUNTY,CWS,60873,L,SWP,"CARTERSVILLE, Bartow County, GA",31.968629396374563,-83.72131866449335,21,7,0,High,red
GA0150002,CARTERSVILLE,CWS,24830,L,SW,"CARTERSVILLE, Bartow County, GA",32.9445376034752,-83.41665877423816,25,9,0,High,red
GA0150003,KINGSTON,CWS,1263,L,GW,"KINGSTON, Bartow County, GA",32.37479300566857,-84.35946933342345,141,3,0,High,red
GA0150004,WHITE,CWS,900,L,GW,"WHITE, Bartow County, GA",33.18518680578604,-82.06332081855949,35,0,2,Medium,orange
GA0150025,EMERSON,CWS,1435,L,GW,"EMERSON, Bartow County, GA",32.96170782970073,-83.5142188593363,26,4,0,High,red
GA0150028,CEDAR HILL MOBILE HOME PARK,CWS,60,P,GW,"CARTERSVILLE, Bartow County, GA",32.9134618444408,-84.7784752612822,38,0,0,Low,yellow
GA0150056,HOLIDAY MARINA,TNCWS,50,P,GW,"ACWORTH, Bartow County, GA",32.230517881504575,-84.91627876189415,134,15,6,High,red
GA0150101,GLADE MARINA OFFICE,TNCWS,453,P,GW,"ACWORTH, Bartow County, GA",32.1130230870878,-81.96114526697863,3,0,0,Low,yellow
GA0150106,WATERSIDE SUBDIVISION,CWS,107,L,SWP,"EMERSON, Bartow County, GA",32.867954877678734,-82.4181878810751,4,0,0,Low,yellow
GA0150107,RED TOP,NTNCWS,852,L,SWP,"EMERSON, Bartow County, GA",31.672940788321938,-82.18690276022312,0,0,0,Good,green
GA0170000,FITZGERALD,CWS,15382,L,GW,"FITZGERALD, Ben Hill County, GA",33.58048778545186,-83.55714457804271,75,67,0,High,red
GA0190000,ALAPAHA,CWS,689,L,GW,"ALAPAHA, Berrien County, GA",32.690149093673796,-82.24657742427009,92,23,2,High,red
GA0190001,ENIGMA,CWS,1296,L,GW,"ENIGMA, Berrien County, GA",33.19368420863808,-82.03395432220655,143,3,4,High,red
GA0190002,NASHVILLE,CWS,4717,L,GW,"NASHVILLE, Berrien County, GA",32.02153162900129,-83.86446875038337,153,8,0,High,red
GA0190003,RAY CITY,CWS,1345,L,GW,"RAY CITY, Berrien County, GA",32.593661105385074,-83.36453934856931,76,2,0,High,red
GA0190006,CAMP TYGART,TNCWS,200,P,GW,"RAY CITY, Berrien County, GA",32.90722066391602,-81.97094828849987,15,0,0,Low,yellow
GA0190014,RAY`S MILL POND CAFE,TNCWS,250,P,GW,"RAY CITY, Berrien County, GA",31.83964126599877,-84.22801776382698,8,4,0,High,red
GA0190028,GREEN ACRES WELLNESS,TNCWS,26,P,GW,"ALAPAHA, Berrien County, GA",33.57314967470309,-83.67500824767836,4,0,0,Low,yellow
GA0210001,MACON WATER AUTHORITY,CWS,130024,L,SW,"MACON, Bibb County, GA",32.8407,-83.6324,19,5,0,High,red
GA0210012,"MACON MANOR ESTATES, LLC",CWS,89,P,GW,"ALPHARETTA, Bibb County, GA",32.8407,-83.6324,104,0,0,Low,yellow
GA0210075,TIMBER RIDGE SUBDIVISION,CWS,381,P,GW,"GRAY, Bibb County, GA",32.8407,-83.6324,14,0,0,Low,yellow
GA0210078,RUTLAND STATION,CWS,103,P,GW,"GRAY, Bibb County, GA",32.8407,-83.6324,13,0,0,Low,yellow
GA0230000,COCHRAN,CWS,8114,L,GW,"COCHRAN, Bleckley County, GA",33.0093907669929,-82.91665951770625,22,0,0,Low,yellow
GA0230003,MIDDLE GEORGIA STATE UNIVERSITY,CWS,1500,S,GW,"COCHRAN, Bleckley County, GA",32.8407,-83.6324,26,3,0,High,red
GA0230028,HILLSIDE BLUEGRASS RV PARK,TNCWS,40,P,GW,"COCHRAN, Bleckley County, GA",33.60479778255413,-83.23616646615635,12,9,0,High,red
GA0250000,HOBOKEN,CWS,528,L,GW,"HOBOKEN, Brantley County, GA",33.161381335430605,-84.34600631932078,20,0,0,Low,yellow
GA0250002,NAHUNTA,CWS,1315,L,GW,"NAHUNTA, Brantley County, GA",31.777203622887548,-82.09165610906743,276,0,0,Low,yellow
GA0250003,SATILLA ESTATES,CWS,234,P,GW,"MIDWAY, Brantley County, GA",32.63972296176599,-82.67991375370762,26,0,0,Low,yellow
GA0250004,DEERWOOD SUBDIVISION,CWS,99,P,GW,"SAVANNAH, Brantley County, GA",32.0835,-81.0998,5,4,0,High,red
GA0250006,WHISPERING PINES SUBDIVISION,CWS,187,P,GW,"SAVANNAH, Brantley County, GA",32.0835,-81.0998,7,0,0,Low,yellow
GA0250014,BRANTLEY COUNTY HIGH SCHOOL,NTNCWS,970,L,GW,"NAHUNTA, Brantley County, GA",33.2405683512139,-84.30718931047144,7,0,0,Low,yellow
GA0250019,BRANTLEY CO MIDDLE SCHOOL,NTNCWS,570,L,GW,"NAHUNTA, Brantley County, GA",31.86372874207468,-82.34137050981131,48,0,0,Low,yellow
GA0250020,HAPPY LANDING FISHING CLUB,CWS,157,P,GW,"SAVANNAH, Brantley County, GA",32.0835,-81.0998,0,0,0,Good,green
GA0250021,RIVER RIDGE SUBDIVISION,CWS,107,P,GW,"SAVANNAH, Brantley County, GA",32.0835,-81.0998,0,0,0,Good,green
GA0250022,WAYNESVILLE AREA ELEM.SCHOOL,NTNCWS,505,L,GW,"WAYNESVILLE, Brantley County, GA",32.40422638415233,-83.99900807674474,17,0,0,Low,yellow
GA0250023,KIDZ KOUNTRY DAY CARE,NTNCWS,180,P,GW,"WAYNESVILLE, Brantley County, GA",32.99540000550945,-82.89893600245297,13,0,0,Low,yellow
GA0250026,SATILLA PLANTATION/EAGLE CREST,NTNCWS,286,P,GW,"SAVANNAH, Brantley County, GA",32.0835,-81.0998,4,0,0,Low,yellow
GA0250027,SATILLA WATER SYSTEM,TNCWS,100,P,GW,"NAHUNTA, Brantley County, GA",31.72524112910327,-83.16605848733414,0,0,0,Good,green
GA0250028,HAWKS LANDING,CWS,119,P,GW,"SAVANNAH, Brantley County, GA",32.0835,-81.0998,7,0,0,Low,yellow
GA0270000,BARWICK,CWS,626,L,GW,"BARWICK, Brooks County, GA",31.810753000904086,-83.96003524910897,41,2,0,High,red
GA0270001,MORVEN,CWS,680,L,GW,"MORVEN, Brooks County, GA",31.88293525419682,-83.1182521441602,28,1,0,High,red
GA0270002,QUITMAN,CWS,5612,L,GW,"QUITMAN, Brooks County, GA",32.91190241038427,-82.66157704950366,94,22,0,High,red
GA0270006,SHADY ACRES SUBDIVISION,CWS,451,P,GW,"SAVANNAH, Brooks County, GA",32.0835,-81.0998,10,0,0,Low,yellow
GA0270007,DEER CREEK MOBILE HOME PARK,CWS,195,P,GW,"QUITMAN, Brooks County, GA",32.95258475995528,-83.3227602265182,71,24,1,High,red
GA0270009,JAMAR SUBDIVISION,CWS,111,P,GW,"SAVANNAH, Brooks County, GA",32.0835,-81.0998,12,0,0,Low,yellow
GA0270011,FAWN HEIGHTS SUBDIVISION,CWS,91,P,GW,"LAKE PARK, Brooks County, GA",31.847260688710715,-82.06349377022046,21,0,0,Low,yellow
GA0270027,BROOKSIDE PRIME PROPERTIES-FHB,CWS,158,P,GW,"VALDOSTA, Brooks County, GA",30.8327,-83.2785,52,3,0,High,red
GA0270028,"LANGBOARD, INC. OSB DIVISION",NTNCWS,130,P,GW,"QUITMAN, Brooks County, GA",32.0263185114993,-82.17095850455787,82,0,0,Low,yellow
GA0270029,GREEN MEADOWS #2/QUAIL RUN,CWS,367,P,GW,"VALDOSTA, Brooks County, GA",30.8327,-83.2785,35,0,0,Low,yellow
GA0270036,OAK RIDGE VILLAGE,CWS,121,P,GW,"LAKE PARK, Brooks County, GA",32.93019028375362,-84.64316803067148,113,0,2,Medium,orange
GA0270038,REDWOOD LAKE,CWS,54,P,GW,"QUITMAN, Brooks County, GA",32.62974488078098,-82.64330803867514,24,0,0,Low,yellow
GA0270039,PEACHTREE ACRES SUBDIVISION PHASE IV,CWS,108,P,GW,"SAVANNAH, Brooks County, GA",32.0835,-81.0998,12,0,0,Low,yellow
GA0290000,RICHMOND HILL,CWS,16068,L,GW,"RICHMOND HILL, Bryan County, GA",33.578556265893184,-83.4961607633542,54,6,2,High,red
GA0290001,PEMBROKE WATER SYSTEM,CWS,2574,L,GW,"PEMBROKE, Bryan County, GA",32.244958363055964,-84.6254135088259,35,0,1,Medium,orange
GA0290002,BLACK CREEK SCHOOL,NTNCWS,58,L,GW,"PEMBROKE, Bryan County, GA",33.376266041460774,-84.93137519636743,24,0,0,Low,yellow
GA0290003,DNR-FT MCALLISTER HIST PK CAMP,TNCWS,115,S,GW,"STOCKBRIDGE, Bryan County, GA",32.21145868115025,-82.12752276353035,14,2,0,High,red
GA0290004,BLACK CREEK FARMS SUBDIVISION,CWS,320,P,GW,"SAVANNAH, Bryan County, GA",32.0835,-81.0998,19,0,0,Low,yellow
GA0290005,BRYAN ACRES SUBDIVISION,CWS,211,P,GW,"SAVANNAH, Bryan County, GA",32.0835,-81.0998,14,0,0,Low,yellow
GA0290006,BRYAN WOODS ESTATES,CWS,187,P,GW,"SAVANNAH, Bryan County, GA",32.0835,-81.0998,24,0,0,Low,yellow
GA0290008,CAPE HARDWICKE/FT. MCALLISTER/KINSALE/RE,CWS,798,P,GW,"SAVANNAH, Bryan County, GA",32.0835,-81.0998,20,0,0,Low,yellow
GA0290009,LAKE LORRAINE SUBDIVISION,CWS,232,P,GW,"ELLABELL, Bryan County, GA",31.758755080360082,-84.11431582852326,23,0,0,Low,yellow
GA0290010,LINCOLN RIVER ESTATES,CWS,101,P,GW,"SAVANNAH, Bryan County, GA",32.0835,-81.0998,24,0,0,Low,yellow
GA0290011,STRATHY HALL SUBDIVISION,CWS,1118,P,GW,"SAVANNAH, Bryan County, GA",32.0835,-81.0998,21,0,0,Low,yellow
GA0290013,BLACK CREEK FARMS WEST,CWS,291,P,GW,"SAVANNAH, Bryan County, GA",32.0835,-81.0998,19,0,0,Low,yellow
GA0290014,BAR D RANCH SUBDIVISION,CWS,57,P,GW,"NEWINGTON, Bryan County, GA",32.22745797821707,-84.65021646327483,26,0,3,Medium,orange
GA0290015,BRIARWOOD SUBDIVISION,CWS,49,P,GW,"SAVANNAH, Bryan County, GA",32.0835,-81.0998,15,0,0,Low,yellow
GA0290017,LANIER ELEMENTARY SCHOOL,NTNCWS,468,L,GW,"PEMBROKE, Bryan County, GA",31.73415183530203,-82.49191027793306,22,0,0,Low,yellow
GA0290018,DNR-FT MCALLISTER HIST PK PICN,TNCWS,40,S,GW,"STOCKBRIDGE, Bryan County, GA",33.21315256708474,-82.37460723676473,15,0,0,Low,yellow
GA0290020,DANIEL PINES,CWS,148,P,GW,"SAVANNAH, Bryan County, GA",32.0835,-81.0998,30,2,0,High,red
GA0290021,THE COVE SUBDIVISION,CWS,270,P,GW,"SAVANNAH, Bryan County, GA",32.0835,-81.0998,41,12,0,High,red
GA0290022,HOLLY HILL SUBDIVISION,CWS,140,P,GW,"SAVANNAH, Bryan County, GA",32.0835,-81.0998,290,0,0,Low,yellow
GA0290023,BRYAN WOODS ESTATES PHASE III,CWS,123,P,GW,"STATESBORO, Bryan County, GA",33.41826902773894,-84.17490931126855,55,1,1,High,red
GA0290024,THE BLUFF-BELLE ISLAND HOA,CWS,268,P,GW,"RICHMOND HILL, Bryan County, GA",32.21558974853259,-83.60522515441956,126,0,1,Medium,orange
GA0290025,TIVOLI MARSH WATER SYSTEM,CWS,146,P,GW,"RICHMOND HILL, Bryan County, GA",32.8120356333778,-82.09572408448025,48,7,0,High,red
GA0290029,GARDNER ESTATES,CWS,174,P,GW,"SAVANNAH, Bryan County, GA",32.0835,-81.0998,24,2,1,High,red
GA0290031,KENS MOBILE HOME PARK,CWS,28,P,GW,"RINCON, Bryan County, GA",33.624425738874145,-82.61799296212673,55,18,0,High,red
GA0290036,RICHMOND HILL MHP,CWS,58,P,GW,"BISHOP, Bryan County, GA",31.692476655460258,-82.92408286783639,21,5,0,High,red
GA0290044,K.O.A.,TNCWS,260,P,GW,"RICHMOND HILL, Bryan County, GA",32.75200263558818,-83.35975482900643,7,2,0,High,red
GA0290061,USA-FORT STEWART TAC-X,NTNCWS,300,F,GW,"FORT STEWART, Bryan County, GA",32.89438367520735,-84.48369069110481,6,0,0,Low,yellow
GA0290064,BAILEY PLANTATION SUBDIVISION,CWS,355,P,GW,"SAVANNAH, Bryan County, GA",32.0835,-81.0998,20,0,0,Low,yellow
GA0290067,QUAIL HAMLET SUBDIVISION,CWS,55,P,GW,"SAVANNAH, Bryan County, GA",32.0835,-81.0998,50,0,0,Low,yellow
GA0290069,BELFAST RIVER LANDING - JERICO S/D,CWS,135,P,GW,"SAVANNAH, Bryan County, GA",32.0835,-81.0998,33,0,0,Low,yellow
GA0290070,OAK POINTE SUBDIVISION,CWS,198,P,GW,"STATESBORO, Bryan County, GA",32.747070717655994,-83.89727248138625,34,2,1,High,red
GA0290071,CRANSTON BLUFF-WATERFORD LANDING,CWS,975,P,GW,"SAVANNAH, Bryan County, GA",32.0835,-81.0998,406,0,0,Low,yellow
GA0290072,ANDERSON S/D,CWS,26,P,GW,"SAVANNAH, Bryan County, GA",32.0835,-81.0998,8,0,0,Low,yellow
GA0290076,OXFORD UTILITY COMPANY,CWS,315,P,GW,"SAVANNAH, Bryan County, GA",32.0835,-81.0998,11,0,0,Low,yellow
GA0290078,BUCKLAND HALL PLANTATION,CWS,65,P,GW,"GARDEN CITY, Bryan County, GA",33.62564491215711,-82.1288921733508,41,3,0,High,red
GA0290079,WELLINGTON OAKS SUBDIVISION,CWS,138,P,GW,"SAVANNAH, Bryan County, GA",32.0835,-81.0998,5,0,0,Low,yellow
GA0290080,SOUTH ATLANTIC UTILITIES-BRYAN COUNTY(S),CWS,3422,P,GW,"SAVANNAH, Bryan County, GA",32.0835,-81.0998,18,0,0,Low,yellow
GA0290083,HOPE CREEK PLANTATION,CWS,104,P,GW,"SAVANNAH, Bryan County, GA",32.0835,-81.0998,21,0,0,Low,yellow
GA0290087,SEASCAPE SUBDIVISION,CWS,39,P,GW,"SAVANNAH, Bryan County, GA",32.0835,-81.0998,8,0,0,Low,yellow
GA0290089,DIP TRADING CORPORATION AND DIP TWO,TNCWS,250,P,GW,"POOLER, Bryan County, GA",32.972709069773366,-83.91790398059739,0,0,0,Good,green
GA0290090,DEMERIES LAKE SUBDIVISION,CWS,52,P,GW,"SAVANNAH, Bryan County, GA",32.0835,-81.0998,5,0,0,Low,yellow
GA0290091,BRYAN COUNTY - INTERSTATE CENTRE,NTNCWS,35,L,GW,"PEMBROKE, Bryan County, GA",32.219832422735344,-83.58094231074928,2,0,0,Low,yellow
GA0290092,VICTORIA PLACE SUBDIVISION,CWS,200,P,GW,"SAVANNAH, Bryan County, GA",32.0835,-81.0998,3,0,0,Low,yellow
GA0290093,MAGNOLIA CREEK PLANTATION/TAYOR PLACE,CWS,455,P,GW,"SAVANNAH, Bryan County, GA",32.0835,-81.0998,5,0,0,Low,yellow
GA0290094,LAUREL GROVE,CWS,122,P,GW,"SAVANNAH, Bryan County, GA",32.0835,-81.0998,8,0,0,Low,yellow
GA0290095,KINGS FERRY RV RESORT,TNCWS,109,P,GW,"ELLABELLE, Bryan County, GA",32.84896902492961,-83.48594548169184,12,0,0,Low,yellow
GA0290096,DUNHAM MARSH,CWS,429,P,GW,"SAVANNAH, Bryan County, GA",32.0835,-81.0998,9,0,0,Low,yellow
GA0290097,THE SANCTUARY SUBDIVISION,CWS,81,P,GW,"SAVANNAH, Bryan County, GA",32.0835,-81.0998,4,0,0,Low,yellow
GA0290098,BLACK CREEK GOLF-BREWTON ACRES,CWS,541,P,GW,"SAVANNAH, Bryan County, GA",32.0835,-81.0998,10,0,0,Low,yellow
GA0290099,HAYDEN LAKES SUBDIVISION,CWS,270,L,GW,"SAVANNAH, Bryan County, GA",32.0835,-81.0998,9,0,1,Medium,orange
GA0290102,BRYAN COUNTY WATER SYSTEM,CWS,1111,L,GW,"PEMBROKE, Bryan County, GA",32.434477917062466,-84.29246238211186,5,0,2,Medium,orange
GA0290103,SOUTH BRYAN COUNTY,NTNCWS,1400,L,GW,"PEMBROKE, Bryan County, GA",32.50116445486147,-84.39143647418308,17,0,0,Low,yellow
GA0290104,HENDERSON PARK,CWS,2160,L,GW,"PEMBROKE, Bryan County, GA",33.548825051666235,-84.87104812377949,5,0,3,Medium,orange
GA0290105,OAK LEVEL WATER SYSTEM,CWS,540,L,GW,"RICHMOND HILL, Bryan County, GA",33.20702774792392,-84.23251961380076,4,0,2,Medium,orange
GA0310000,BROOKLET WATER SYSTEM,CWS,1456,L,GW,"BROOKLET, Bulloch County, GA",32.87830665308958,-83.4195549612662,18,0,0,Low,yellow
GA0310001,NEVILS WATER ASSOCIATION,CWS,146,P,GW,"PEMBROKE, Bulloch County, GA",32.90653907140838,-84.81803677610381,10,0,0,Low,yellow
GA0310002,PORTAL WATER SYSTEM,CWS,879,L,GW,"PORTAL, Bulloch County, GA",32.6233317999569,-82.2255288271082,55,3,4,High,red
GA0310003,REGISTER WATER SYSTEM,CWS,182,L,GW,"REGISTER, Bulloch County, GA",33.141477937973185,-82.93285384354452,106,0,2,Medium,orange
GA0310004,STATESBORO,CWS,36846,L,GW,"STATESBORO, Bulloch County, GA",33.51579314211199,-83.17857229323175,21,3,2,High,red
GA0310006,GEORGIA SOUTHERN UNIVERSITY,CWS,20357,S,GW,"STATESBORO, Bulloch County, GA",32.0835,-81.0998,7,0,0,Low,yellow
GA0310010,STILSON ELEMENTARY SCHOOL,NTNCWS,265,L,GW,"STATESBORO, Bulloch County, GA",31.69148363471631,-84.78838384803566,18,0,1,Medium,orange
GA0310013,"LEEFIELD WATER ASSOC., INC.",CWS,84,P,GW,"BROOKLET, Bulloch County, GA",32.72242747705544,-83.02679947491269,23,0,0,Low,yellow
GA0310014,LMB ENTERPRISES,CWS,49,P,GW,"STATESBORO, Bulloch County, GA",32.80944674478011,-83.09885918031392,1027,19,4,High,red
GA0310015,FOREST HEIGHTS SUBDIVISION,CWS,835,P,GW,"STATESBORO, Bulloch County, GA",33.262741882266084,-82.55519150253667,34,0,0,Low,yellow
GA0310016,GROVE LAKES SUBDIVISION,CWS,855,P,GW,"SAVANNAH, Bulloch County, GA",32.0835,-81.0998,18,2,0,High,red
GA0310019,PARKWOOD MOTEL & RESTAURANT,TNCWS,50,P,GW,"STATESBORO, Bulloch County, GA",33.160560516843184,-82.26329512920972,15,2,0,High,red
GA0310025,THE BARN MOBILE HOME PARK,CWS,232,P,GW,"STATESBORO, Bulloch County, GA",33.63691710439325,-83.61816824723788,57,2,5,High,red
GA0310028,LAKE COLLINS ESTATES,CWS,120,P,GW,"STATESBORO, Bulloch County, GA",32.504454715348665,-83.4595481203839,21,0,0,Low,yellow
GA0310033,TANKERSLEY-WINFIELD,CWS,151,P,GW,"SAVANNAH, Bulloch County, GA",32.0835,-81.0998,21,2,0,High,red
GA0310036,COUNTRY CLUB HILLS/PINE FOREST,CWS,250,P,GW,"SAVANNAH, Bulloch County, GA",32.0835,-81.0998,29,0,0,Low,yellow
GA0310037,FOREST HILLS SUBDIVISION,CWS,215,P,GW,"SAVANNAH, Bulloch County, GA",32.0835,-81.0998,33,2,0,High,red
GA0310038,COUNTRY LAKES ESTATES MHP,CWS,229,P,GW,"STATESBORO, Bulloch County, GA",33.24019878241797,-82.37991181065269,21,2,0,High,red
GA0310041,NEW HOPE SUBDIVISION,CWS,78,P,GW,"REGISTER, Bulloch County, GA",33.404868427893064,-83.86100623540733,114,6,0,High,red
GA0310052,COACH HOUSE ESTATES MHP,CWS,200,P,GW,"STATESBORO, Bulloch County, GA",33.4354077112812,-83.20592181017604,29,2,0,High,red
GA0310053,COLONIAL HEIGHTS SUBDIVISION,CWS,117,P,GW,"STATESBORO, Bulloch County, GA",32.918682396588395,-83.56670448850151,32,2,0,High,red
GA0310055,CYPRESS LAKE MOBILE HOME PARK,CWS,94,P,GW,"STATESBORO, Bulloch County, GA",32.293716071890636,-82.91430284260825,18,3,0,High,red
GA0310060,MILL CREEK ESTATES,CWS,29,P,GW,"STATESBORO, Bulloch County, GA",33.749,-84.388,57,3,0,High,red
GA0310061,LAKESIDE ESTATES,CWS,124,P,GW,"STATESBORO, Bulloch County, GA",31.72285693693414,-84.66884344187291,49,4,3,High,red
GA0310062,NEWTONS MOBILE HOME VILLAGE,CWS,36,P,GW,"ATLANTA, Bulloch County, GA",33.749,-84.388,99,10,0,High,red
GA0310071,WESTCHESTER SUBDIVISION,CWS,172,P,GW,"SAVANNAH, Bulloch County, GA",32.0835,-81.0998,16,0,0,Low,yellow
GA0310073,OGEECHEE RIVERVIEW POA,TNCWS,39,P,GW,"BROOKLET, Bulloch County, GA",31.975512921144322,-84.6067312659351,30,9,0,High,red
GA0310109,THE LOXCREEN COMPANY INC.,NTNCWS,50,P,GW,"BROOKLET, Bulloch County, GA",32.01880040129008,-82.28052538738645,105,3,0,High,red
GA0310111,BULLOCH CO. SCHOOL BUS GARAGE,TNCWS,225,L,GW,"STATESBORO, Bulloch County, GA",33.13613156018459,-81.98578484779625,16,0,0,Low,yellow
GA0310156,WILLIAM JAMES MIDDLE SCHOOL,NTNCWS,300,L,GW,"STATESBORO, Bulloch County, GA",31.943839032788038,-83.13148608665574,13,0,1,Medium,orange
GA0310165,GEORGIAN WALK SUBDIVISION,CWS,372,P,GW,"STATESBORO, Bulloch County, GA",33.036589795148465,-84.22597433948597,51,7,1,High,red
GA0310166,ELDORA FARMS SUBDIVISION,CWS,302,P,GW,"SAVANNAH, Bulloch County, GA",32.0835,-81.0998,9,0,0,Low,yellow
GA0310167,MILL CREEK LANDING,CWS,123,P,GW,"STATESBORO, Bulloch County, GA",32.160196743418275,-83.96333809014003,35,0,2,Medium,orange
GA0310168,MEADOW LAKES PLANTATION SUBDIVISION,CWS,429,P,GW,"STATESBORO, Bulloch County, GA",32.31595817468922,-83.69232387517903,30,4,2,High,red
GA0310169,WESTRIDGE SUBDIVISION,CWS,47,P,GW,"STATESBORO, Bulloch County, GA",31.90764529708596,-84.28379392291241,51,0,2,Medium,orange
GA0310170,HODGES SUBDIVISION,CWS,44,P,GW,"STATESBORO, Bulloch County, GA",31.798239237848854,-84.6417171623322,19,2,0,High,red
GA0310171,DEERFIELD SUBDIVISION,CWS,135,P,GW,"STATESBORO, Bulloch County, GA",33.24999457094171,-82.9739881986133,30,1,2,High,red
GA0310172,NORTHWOOD SUBDIVISION,CWS,169,P,GW,"SAVANNAH, Bulloch County, GA",32.0835,-81.0998,17,0,0,Low,yellow
GA0310174,CHANCE`S MOBILE HOME PARK,CWS,146,P,GW,"STATESBORO, Bulloch County, GA",33.749,-84.388,49,8,0,High,red
GA0310177,OLD MILL POND SUBDIVISION,CWS,55,P,GW,"STATESBORO, Bulloch County, GA",32.0835,-81.0998,29,0,0,Low,yellow
GA0310178,BIRD ROAD TRAILER PARK,CWS,107,P,GW,"STATESBORO, Bulloch County, GA",33.749,-84.388,2,0,0,Low,yellow
GA0310180,TIMBERLAND POINT APARTMENTS,CWS,291,P,GW,"STATESBORO, Bulloch County, GA",32.369543948502375,-84.05987298919956,26,4,0,High,red
GA0310183,HUNTERS POINT SUBDIVISION,CWS,507,P,GW,"STATESBORO, Bulloch County, GA",32.76379724853387,-84.58158733753237,25,5,1,High,red
GA0310184,SOUTHERN COMFORT SUBDIVISION,CWS,159,P,GW,"STATESBORO, Bulloch County, GA",33.267520795362884,-84.78402037362703,25,0,2,Medium,orange
GA0310185,ON THE POND SUBDIVISION,CWS,159,P,GW,"STATESBORO, Bulloch County, GA",31.652248590156947,-82.18968734375709,30,0,3,Medium,orange
GA0310187,ENGLISH OAKS MOBILE HOME PARK,CWS,226,P,GW,"POOLER, Bulloch County, GA",32.77139453643389,-84.67016143277961,12,2,0,High,red
GA0310188,OLNEY STATION SUBDIVISION,CWS,289,P,GW,"SAVANNAH, Bulloch County, GA",32.0835,-81.0998,38,0,0,Low,yellow
GA0310189,PLANTATION MOBILE ESTATES,CWS,104,P,GW,"STATESBORO, Bulloch County, GA",33.749,-84.388,26,0,0,Low,yellow
GA0310190,YORKTOWN SUBDIVISION,CWS,130,P,GW,"STATESBORO, Bulloch County, GA",33.559928341155185,-82.78753872326298,24,0,0,Low,yellow
GA0310191,HORIZONS WEST SUBDIVISION,CWS,216,P,GW,"STATESBORO, Bulloch County, GA",33.26813708198271,-83.09252769607721,69,0,3,Medium,orange
GA0310192,DRY BRANCH VILLAGE MOBILE HOME PARK,CWS,206,P,GW,"SANDERSVILLE, Bulloch County, GA",32.27981399885936,-83.12084182024866,2,0,0,Low,yellow
GA0310194,LUNDY TRAILER PARK,CWS,44,P,GW,"STATESBORO, Bulloch County, GA",32.56312879482306,-82.86569207769254,27,0,0,Low,yellow
GA0310195,COUNTRY WALK SUBDIVISION,CWS,328,P,GW,"STATESBORO, Bulloch County, GA",33.24745140540363,-84.06074955894245,9,0,0,Low,yellow
GA0310197,DEALS MOBILE HOME PARK,CWS,23,P,GW,"STATESBORO, Bulloch County, GA",33.38763397422354,-83.48222087304782,15,0,0,Low,yellow
GA0310198,HERITAGE MOBILE HOME PARK,CWS,362,P,GW,"STATESBORO, Bulloch County, GA",32.57341424544859,-83.5249565978105,35,0,0,Low,yellow
GA0310200,STANFORD SUBDIVISION,CWS,81,P,GW,"STATESBORO, Bulloch County, GA",32.0835,-81.0998,12,0,0,Low,yellow
GA0310201,OAK HILL MOBILE HOME PARK,CWS,26,P,GW,"STATESBORO, Bulloch County, GA",33.749,-84.388,26,0,0,Low,yellow
GA0310202,MIDDLEGROUND PLANTATION,CWS,143,P,GW,"STATESBORO, Bulloch County, GA",32.84800128350079,-83.43167527466962,13,0,0,Low,yellow
GA0310203,PRETORIA STATION/BROOKWOOD SUBDIVISION,CWS,333,P,GW,"STATESBORO, Bulloch County, GA",33.10310836723685,-83.7021146114629,32,0,2,Medium,orange
GA0310204,WESTOVER SUBDIVISION,CWS,179,P,GW,"STATESBORO, Bulloch County, GA",32.82260255715292,-84.30579902529888,44,3,2,High,red
GA0310205,BRADFORD PLACE,CWS,245,P,GW,"STATESBORO, Bulloch County, GA",32.25127053337551,-83.00063000221543,65,4,1,High,red
GA0310206,INMAN LAKES SUBDIVISION,CWS,47,P,GW,"STATESBORO, Bulloch County, GA",32.98365457394718,-82.48694193469413,19,4,0,High,red
GA0310207,GLEN OAKS SUBDIVISION,CWS,174,P,GW,"STATESBORO, Bulloch County, GA",32.452353365420805,-82.89560150352268,10,2,0,High,red
GA0310208,AMBERWOOD SUBDIVISION,CWS,434,P,GW,"STATESBORO, Bulloch County, GA",32.18099840706698,-82.38069626241872,3,0,0,Low,yellow
GA0310210,PATRIOT INN,TNCWS,115,P,GW,"REGISTER, Bulloch County, GA",32.45605305784091,-84.78113152984568,6,0,0,Low,yellow
GA0310211,OLD INDIAN TRAIL,CWS,273,P,GW,"STATESBORO, Bulloch County, GA",32.0835,-81.0998,15,1,0,High,red
GA0310212,WESTBORO APARTMENTS,CWS,86,P,GW,"STATESBORO, Bulloch County, GA",32.23176815890116,-83.10610457807648,17,2,0,High,red
GA0310213,CODY LANE MOBILE HOME PARK,CWS,54,P,GW,"BROOKLET, Bulloch County, GA",31.884575778908673,-84.83996581898485,13,2,1,High,red
GA0310215,PULASKI POINTE SUBDIVISION,CWS,120,P,GW,"SAVANNAH, Bulloch County, GA",32.0835,-81.0998,14,0,0,Low,yellow
GA0310216,STAR LINE HEIGHTS APARTMENTS,CWS,32,P,GW,"STATESBORO, Bulloch County, GA",32.77281352265809,-83.4389185613706,12,0,0,Low,yellow
GA0310217,WILLOW POND,CWS,40,P,GW,"STATESBORO, Bulloch County, GA",32.942826463261056,-83.10827046882424,40,0,1,Medium,orange
GA0310218,W.M.SHEPPARD LUMBER COMPANY,NTNCWS,125,P,GW,"BROOKLET, Bulloch County, GA",31.936017240886784,-84.22624553583907,30,3,1,High,red
GA0310219,BROOK RUN SUBDIVISION,CWS,55,P,GW,"STATESBORO, Bulloch County, GA",32.16655282914419,-82.79403525090873,23,0,0,Low,yellow
GA0310220,PARKWAY PLACE SUBDIVISION,CWS,260,P,GW,"STATESBORO, Bulloch County, GA",33.40999481770705,-82.62015392954085,31,5,1,High,red
GA0310221,SOUTH SIDE WATER SYSTEM,CWS,55,P,GW,"SAVANNAH, Bulloch County, GA",32.0835,-81.0998,14,0,0,Low,yellow
GA0310222,BROOKLET SOUTH SUBDIVISION,CWS,195,P,GW,"STATESBORO, Bulloch County, GA",33.04429946316539,-83.53534708142575,5,3,0,High,red
GA0310223,EAGLE VILLAGE MHP,CWS,205,P,GW,"STATESBORO, Bulloch County, GA",33.15303134196277,-81.95256759441725,61,6,0,High,red
GA0310225,MILL CREEK LODGE,TNCWS,44,P,GW,"STATESBORO, Bulloch County, GA",32.042157366857374,-83.99079219089067,7,0,0,Low,yellow
GA0310227,CAMBRIDGE SUBDIVISION,CWS,244,P,GW,"STATESBORO, Bulloch County, GA",32.79930980373013,-83.13946771075186,4,0,0,Low,yellow
GA0310228,BERKSHIRE SUBDIVISION,CWS,218,P,GW,"STATESBORO, Bulloch County, GA",33.35555381681959,-82.42615249010248,39,0,2,Medium,orange
GA0310229,PINE INN ESTATES,CWS,109,P,GW,"REGISTER, Bulloch County, GA",33.523001780328514,-83.04215845111476,70,3,1,High,red
GA0310230,BEAVER CREEK - CROSSWAY COTTAGES,CWS,403,P,GW,"SAVANNAH, Bulloch County, GA",32.0835,-81.0998,25,0,0,Low,yellow
GA0310231,DOGWOOD ESTATES MHP,CWS,73,P,GW,"STATESBORO, Bulloch County, GA",33.20534584281752,-84.6809986214061,9,0,1,Medium,orange
GA0310232,BURKHALTER - SHADOWBROOK -TALON'S LAKE,CWS,1885,P,GW,"SAVANNAH, Bulloch County, GA",32.0835,-81.0998,12,0,0,Low,yellow
GA0310235,OAKFIELD SUBDIVISION,CWS,161,P,GW,"STATESBORO, Bulloch County, GA",32.978475775719595,-83.73294439421142,9,0,0,Low,yellow
GA0310236,WHITE OAKS ESTATES SUBDIVISION,CWS,65,P,GW,"SAVANNAH, Bulloch County, GA",32.0835,-81.0998,4,0,0,Low,yellow
GA0310237,BEAUMONT PLANTATION,CWS,143,P,GW,"STATESBORO, Bulloch County, GA",33.015373056220724,-83.92515473967329,33,0,0,Low,yellow
GA0310238,LEEFIELD STATION MOBILE HOME PARK,CWS,136,P,GW,"SAVANNAH, Bulloch County, GA",32.0835,-81.0998,8,0,0,Low,yellow
GA0310239,LUKE ESTATES MHP,CWS,34,P,GW,"STATESBORO, Bulloch County, GA",32.859245307447914,-84.7379604068936,0,0,0,Good,green
GA0310241,SADDLE CREEK,CWS,164,P,GW,"SAVANNAH, Bulloch County, GA",32.0835,-81.0998,36,0,0,Low,yellow
GA0310242,PARKVIEW SUBDIVISION,CWS,62,P,GW,"STATESBORO, Bulloch County, GA",31.88441754805401,-82.06880242251825,10,0,0,Low,yellow
GA0310243,PEBBLESTONE SUBDIVISION,CWS,125,P,GW,"STATESBORO, Bulloch County, GA",32.52600147473455,-83.12318458767659,15,0,1,Medium,orange
GA0310245,LAKEVIEW COMMONS,CWS,49,P,GW,"SAVANNAH, Bulloch County, GA",32.0835,-81.0998,4,0,0,Low,yellow
GA0310246,JOHNSON RUN SUBDIVISION,CWS,318,P,GW,"STATESBORO, Bulloch County, GA",31.83055690296004,-83.37734133763304,3,0,0,Low,yellow
GA0310247,SMITH CREEK SUBDIVISION,CWS,75,P,GW,"STATESBORO, Bulloch County, GA",33.429697875397665,-82.7625421831041,57,0,0,Low,yellow
GA0310248,CARRINGTON SOUTH SUBDIVISION,CWS,227,P,GW,"STATESBORO, Bulloch County, GA",32.43105482893972,-83.62055269734738,23,0,1,Medium,orange
GA0310250,BUCKHEAD PLANTATION,CWS,25,P,GW,"STATESBORO, Bulloch County, GA",32.262295337550455,-83.64951888655854,3,0,0,Low,yellow
GA0310251,WAVERLY COVE SUBDIVISION,CWS,68,P,GW,"SAVANNAH, Bulloch County, GA",32.0835,-81.0998,12,0,0,Low,yellow
GA0310252,EAST HAMPTON AT MILL CREEK,CWS,73,P,GW,"SAVANNAH, Bulloch County, GA",32.0835,-81.0998,5,0,0,Low,yellow
GA0310253,FOREST HEIGHTS CENTER,NTNCWS,25,P,GW,"STATESBORO, Bulloch County, GA",33.10317297486358,-83.37663620684678,7,0,0,Low,yellow
GA0310255,WINDMILL PLANTATION SUBDIVISION,CWS,26,P,GW,"SAVANNAH, Bulloch County, GA",32.0835,-81.0998,17,0,0,Low,yellow
GA0310256,WOODBRIDGE SUBDIVISION,CWS,247,P,GW,"STATESBORO, Bulloch County, GA",33.07679599486023,-82.66091374353859,12,0,0,Low,yellow
GA0310257,STILLWATER SUBDIVISION,CWS,26,P,GW,"STATESBORO, Bulloch County, GA",31.750385736491342,-82.9532791258813,72,0,6,Medium,orange
GA0310258,GRAYSTONE APARTMENTS,CWS,99,P,GW,"SAVANNAH, Bulloch County, GA",32.0835,-81.0998,5,0,0,Low,yellow
GA0310260,SPENWAY SUBDIVISION,CWS,296,P,GW,"STATESBORO, Bulloch County, GA",32.39618056197844,-83.98937470275392,50,0,0,Low,yellow
GA0310261,STONEBROOK SUBDIVISION,CWS,299,P,GW,"STATESBORO, Bulloch County, GA",32.768189670139684,-82.45563788484802,12,0,0,Low,yellow
GA0310262,OAKWOOD SUBDIVISION,CWS,28,P,GW,"SAVANNAH, Bulloch County, GA",32.0835,-81.0998,0,0,0,Good,green
GA0310265,WOODLAKE SUBDIVISION,CWS,88,P,GW,"SAVANNAH, Bulloch County, GA",32.0835,-81.0998,0,0,0,Good,green
GA0310266,WILLIAMSBURG SUBDIVISION,CWS,70,P,GW,"SAVANNAH, Bulloch County, GA",32.0835,-81.0998,0,0,0,Good,green
GA0310270,ALEXANDER FARMS SUBDIVISION,CWS,81,P,GW,"STATESBORO, Bulloch County, GA",31.97293535719014,-84.06060779932662,73,0,3,Medium,orange
GA0310271,WEDGEFIELD PLANTATION SUBDIVISION,CWS,49,P,GW,"STATESBORO, Bulloch County, GA",33.622864170649265,-82.62550470267193,2,0,2,Medium,orange
GA0310273,SANDALWOOD S/D,CWS,166,P,GW,"STATESBORO, Bulloch County, GA",32.94979614256833,-82.9870856248187,2,0,0,Low,yellow
GA0310274,COUNTRYSIDE-CYPRESS CROSSING-HAZELWOOD,CWS,694,P,GW,"SAVANNAH, Bulloch County, GA",32.0835,-81.0998,7,0,0,Low,yellow
GA0310276,HINTERLAND TRAIL (NEVILS),CWS,62,P,GW,"STATESBORO, Bulloch County, GA",32.0692043757903,-82.48081377000373,44,0,0,Low,yellow
GA0310278,CHATHAM PLACE,CWS,156,P,GW,"STATESBORO, Bulloch County, GA",33.20506987960807,-83.17452205871788,8,0,0,Low,yellow
GA0310283,PINEMOUNT SUBDIVISION,CWS,263,P,GW,"SAVANNAH, Bulloch County, GA",32.0835,-81.0998,5,0,0,Low,yellow
GA0310291,LUCY LANE,CWS,47,P,GW,"STATESBORO, Bulloch County, GA",31.720290467340625,-84.87903457118651,2,0,0,Low,yellow
GA0310292,JOHNSON RUN PHASE III AND IV,CWS,338,P,GW,"STATESBORO, Bulloch County, GA",32.71453719006191,-81.97665801161463,0,0,0,Good,green
GA0310295,HIGH COTTON SUBDIVISION,CWS,140,P,GW,"BROOKLET, Bulloch County, GA",32.87691709139164,-83.3929944129076,9,0,1,Medium,orange
GA0310297,WEATHERSTONE SUBDIVISION,CWS,25,P,GW,"STATESBORO, Bulloch County, GA",31.91962274155772,-82.02690679119469,7,0,1,Medium,orange
GA0310301,COLEY BOYD ROAD WATER SYSTEM,CWS,25,P,GW,"STATESBORO, Bulloch County, GA",32.066864682191415,-83.70357825583046,14,0,0,Low,yellow
GA0310303,MAGNOLIA FARMS SUBDIVISION,CWS,62,P,GW,"STATESBORO, Bulloch County, GA",32.50137384467718,-84.49867398230388,2,0,2,Medium,orange
GA0310304,THE OAKS,CWS,25,P,GW,"STATESBORO, Bulloch County, GA",32.60810354893554,-82.69301506158652,10,0,1,Medium,orange
GA0310305,FRASER FIELD,CWS,63,P,GW,"STATESBORO, Bulloch County, GA",31.754391042562197,-84.3838082728235,0,0,0,Good,green
GA0310306,RIVER BLUFF WATER SYSTEM,CWS,35,P,GW,"ELLABELL, Bulloch County, GA",33.010573234161384,-84.61582704939393,8,0,0,Low,yellow
GA0310307,BURKTOWN SUBDIVISION,CWS,230,P,GW,"STATESBORO, Bulloch County, GA",31.955915530189955,-84.25677866636455,0,0,0,Good,green
GA0310308,SEE PINES APARTMENTS,CWS,35,P,GW,"STATESBORO, Bulloch County, GA",31.709496309479036,-84.39303412099412,1,0,1,Medium,orange
GA0330000,GIRARD,CWS,240,L,GW,"GIRARD, Burke County, GA",32.2459449364,-82.77758085329772,40,6,0,High,red
GA0330001,MIDVILLE,CWS,776,L,GW,"MIDVILLE, Burke County, GA",32.90853354755101,-82.24684639289278,84,3,3,High,red
GA0330002,SARDIS,CWS,1053,L,GW,"SARDIS, Burke County, GA",32.16457993730736,-84.89203104849406,108,12,0,High,red
GA0330003,VIDETTE,CWS,127,L,GW,"VIDETTE, Burke County, GA",33.027714064387766,-82.43030109016931,64,0,0,Low,yellow
GA0330004,WAYNESBORO,CWS,5900,L,GW,"WAYNESBORO, Burke County, GA",33.32108417646771,-83.24731874303485,43,0,0,Low,yellow
GA0330041,MADE IN THE SHADE,TNCWS,200,P,GW,"WAYNESBORO, Burke County, GA",33.09668773180613,-84.60695541827397,4,0,0,Low,yellow
GA0330044,KEYSVILLE,CWS,305,L,GW,"KEYSVILLE, Burke County, GA",33.02416164482114,-84.45062125943542,57,1,1,High,red
GA0330049,WESTERN ESTATES,CWS,78,L,GW,"WAYNESBORO, Burke County, GA",33.28241998034199,-82.35594991142112,72,2,6,High,red
GA0330051,ALLEN & AVNER RV PARK,TNCWS,300,P,GW,"WAYNESBORO, Burke County, GA",32.44578565024738,-81.94833021706411,3,0,0,Low,yellow
GA0330052,JOHNS RV PARK,TNCWS,40,P,GW,"WAYNESBORO, Burke County, GA",31.968770627801597,-83.84685635535608,0,0,0,Good,green
GA0330054,DYSON'S RV PARK,TNCWS,37,P,GW,"EVANS, Burke County, GA",32.64132310862025,-83.68145562341297,9,0,1,Medium,orange
GA0330055,FAITH CHRISTIAN ACADEMY,NTNCWS,111,P,GW,"WAYNESBORO, Burke County, GA",33.28824098135811,-82.11856384987873,6,0,0,Low,yellow
GA0330058,PLANT VOGTLE CAMPGROUND,TNCWS,30,P,GW,"WAYNESBORO, Burke County, GA",33.4331199082028,-83.88512120423849,12,0,2,Medium,orange
GA0330060,DOGWOOD RV PARK,TNCWS,110,P,GW,"WAYNESBORO, Burke County, GA",33.16853288602997,-83.26873904882666,33,0,0,Low,yellow
GA0330065,URBAN KITCHEN,TNCWS,75,P,GW,"WAYNESBORO, Burke County, GA",32.343863788752415,-83.14735284520017,11,0,0,Low,yellow
GA0330068,CROSS ROADS RV PARK WATER SYSTEM,TNCWS,30,P,GW,"WAYNESBORO, Burke County, GA",32.80423400838069,-82.5076840233634,4,0,0,Low,yellow
GA0330072,MORE THAN SWEETS CAFE,TNCWS,25,P,GW,"WAYNESBORO, Burke County, GA",31.68195147387389,-84.60431755652894,6,0,0,Low,yellow
GA0350000,FLOVILLA,CWS,1292,L,GW,"FLOVILLA, Butts County, GA",31.851785076453062,-83.9037005904714,7,2,0,High,red
GA0350009,GEORGIA DIAGNOSTIC CENTER,CWS,2800,S,SWP,"JACKSON, Butts County, GA",32.02154088408089,-83.18665898515744,78,1,1,High,red
GA0350047,DNR-INDIAN SPRINGS COTTAGE AR.,TNCWS,1000,S,GW,"STOCKBRIDGE, Butts County, GA",33.29372372052981,-83.92017029844052,10,0,0,Low,yellow
GA0350049,DNR-INDIAN SPRINGS TENT CAMP,TNCWS,1000,S,GW,"FLOVILLA, Butts County, GA",32.591589336024136,-83.32130729599791,8,0,0,Low,yellow
GA0350050,DNR-INDIAN SPRINGS VISITOR CTR,TNCWS,1000,S,GW,"FLOVILLA, Butts County, GA",32.404624295582124,-84.59374976611115,11,3,0,High,red
GA0350051,BUTTS COUNTY/JACKSON/JENKINSBURG WS,CWS,31171,L,SW,"JACKSON, Butts County, GA",32.245110267878204,-82.0322331185568,26,12,0,High,red
GA0370000,ARLINGTON,CWS,1220,L,GW,"ARLINGTON, Calhoun County, GA",32.22111691405483,-84.58195308875119,79,17,3,High,red
GA0370001,EDISON,CWS,1382,L,GW,"EDISON, Calhoun County, GA",32.310354137250364,-82.52973004685802,84,0,3,Medium,orange
GA0370002,LEARY,CWS,597,L,GW,"LEARY, Calhoun County, GA",32.37043738684056,-83.78205437522757,28,0,0,Low,yellow
GA0370003,MORGAN,CWS,321,L,GW,"MORGAN, Calhoun County, GA",32.631220663752515,-83.59146040378768,56,2,0,High,red
GA0370005,NOTHING FANCY CATFISH HOUSE,TNCWS,74,P,GW,"LEARY, Calhoun County, GA",32.63679474021605,-83.44548995248162,8,0,0,Low,yellow
GA0370007,MORGAN STATE PRISON,CWS,1651,L,GW,"MORGAN, Calhoun County, GA",32.33809355953199,-83.72803253753096,11,0,0,Low,yellow
GA0390000,KINGSLAND,CWS,22448,L,GW,"KINGSLAND, Camden County, GA",32.178924457292936,-82.70321301049017,59,38,0,High,red
GA0390001,ST. MARYS,CWS,19408,L,GW,"ST. MARYS, Camden County, GA",33.488223968223906,-83.38037332242489,330,21,5,High,red
GA0390002,WOODBINE,CWS,1456,L,GW,"WOODBINE, Camden County, GA",33.10128855228926,-82.02774418571,24,2,2,High,red
GA0390003,DNR-CROOKED RIVER STATE PARK,TNCWS,100,S,GW,"STOCKBRIDGE, Camden County, GA",33.47946944749078,-83.8737125093543,31,12,0,High,red
GA0390004,CINS-NIGHTINGALE,TNCWS,26,F,GW,"SAINT MARYS, Camden County, GA",32.33159792153417,-82.05260987329382,11,0,0,Low,yellow
GA0390013,USN-KINGS BAY SUBMARINE BASE,CWS,9730,F,GW,"KINGS BAY (U.S. NAVY), Camden County, GA",32.847208625035336,-82.78537730337796,44,22,0,High,red
GA0390043,ELLIOTT`S BLUFF,CWS,397,P,GW,"SAINT MARYS, Camden County, GA",32.0835,-81.0998,15,4,0,High,red
GA0390046,EPISCOPAL CONFERENCE CENTER,TNCWS,25,P,GW,"WAVERLY, Camden County, GA",33.10263058952251,-83.86799259727697,73,10,0,High,red
GA0390049,"CAMDEN CO.-FLEA HILL RECREATION, INC.",CWS,70,P,GW,"WOODBINE, Camden County, GA",31.859420649823385,-83.8907064183459,246,3,1,High,red
GA0390054,A BIG WHEEL RV PARK,TNCWS,100,P,GW,"ST. MARYS, Camden County, GA",33.0943800744622,-83.00702073398804,3,0,0,Low,yellow
GA0390056,SANCTUARY COVE WATER SYSTEM,CWS,510,P,GW,"SAVANNAH, Camden County, GA",32.0835,-81.0998,4,0,0,Low,yellow
GA0390059,RIVER PLACE PLANTATION,CWS,25,P,GW,"SAVANNAH, Camden County, GA",32.0835,-81.0998,2,0,0,Low,yellow
GA0390066,DAVIS BLUFF ESTATES,CWS,100,L,GW,"SAVANNAH, Camden County, GA",32.0835,-81.0998,0,0,0,Good,green
GA0390069,ESTATES AT SANCTUARY COVE,CWS,47,P,GW,"WAVERLY, Camden County, GA",32.0835,-81.0998,0,0,0,Good,green
GA0430000,METTER,CWS,4776,L,GW,"METTER, Candler County, GA",33.41161398193367,-83.91654508570679,32,9,0,High,red
GA0430001,PULASKI,CWS,280,L,GW,"PULASKI, Candler County, GA",31.969769673106597,-84.28039674514315,22,0,0,Low,yellow
GA0430015,EXCELSIOR E.M.C.,NTNCWS,25,P,GW,"METTER, Candler County, GA",31.831843347449606,-84.3571796704298,10,0,3,Medium,orange
GA0430024,MAGNOLIA BLUFF SUBDIVISION,CWS,107,P,GW,"STATESBORO, Candler County, GA",33.0029989327445,-83.1368976593688,12,0,0,Low,yellow
GA0430025,COLEMAN ESTATES MOBILE HOME PARK,CWS,73,P,GW,"METTER, Candler County, GA",32.68046989182692,-83.0180705360077,94,0,0,Low,yellow
GA0430026,CANOE LAKE ESTATES S/D,CWS,60,P,GW,"STATESBORO, Candler County, GA",31.887659108791553,-82.36385925186133,16,0,2,Medium,orange
GA0430028,PULASKI WOODS,CWS,26,P,GW,"STATESBORO, Candler County, GA",31.896882410091234,-82.8623937990949,4,0,0,Low,yellow
GA0430029,CREEKSIDE MANOR,CWS,62,P,GW,"STATESBORO, Candler County, GA",32.11143426348543,-84.07204981984671,4,0,0,Low,yellow
GA0430031,SOUTHERN MANOR AT CANDLER,CWS,25,P,GW,"METTER, Candler County, GA",32.53296544141008,-82.64973109496263,12,2,0,High,red
GA0430032,BEAVER RUN RV PARK,TNCWS,30,P,GW,"METTER, Candler County, GA",32.18874250335573,-82.12234222470629,7,0,3,Medium,orange
GA0450000,BOWDON,CWS,6180,L,SW,"BOWDON, Carroll County, GA",32.97998694341031,-84.36975430146387,63,35,0,High,red
GA0450001,CARROLL COUNTY,CWS,51592,L,SW,"CARROLLTON, Carroll County, GA",32.35407361349882,-84.52678814186034,48,17,0,High,red
GA0450002,CARROLLTON,CWS,25200,L,SW,"CARROLLTON, Carroll County, GA",32.996392492314236,-83.2390387803916,38,17,0,High,red
GA0450003,MOUNT ZION,CWS,1691,L,SWP,"MOUNT ZION, Carroll County, GA",33.202341412757505,-83.23027011640472,24,0,0,Low,yellow
GA0450004,ROOPVILLE,CWS,252,L,GW,"ROOPVILLE, Carroll County, GA",33.43409526277143,-84.14337337322836,71,3,0,High,red
GA0450005,TEMPLE,CWS,5708,L,SWP,"TEMPLE, Carroll County, GA",33.426509644306705,-84.74810793360493,54,7,3,High,red
GA0450006,VILLA RICA,CWS,15667,L,SW,"VILLA RICA, Carroll County, GA",33.061103501485306,-84.50265260626962,94,2,0,High,red
GA0450007,WHITESBURG,CWS,931,L,SWP,"WHITESBURG, Carroll County, GA",31.786516714737804,-84.24030138609247,28,0,0,Low,yellow
GA0450028,WOODLAND CHRISTIAN CAMP,TNCWS,275,P,GW,"TEMPLE, Carroll County, GA",33.14780525772013,-84.19639168104072,41,17,0,High,red
GA0450032,COOKS MOBILE HOME PARK,CWS,122,P,GW,"CARROLLTON, Carroll County, GA",33.16742575189459,-84.23131824637673,57,0,4,Medium,orange
GA0450045,VILLA FOREST MOBILE HOME PARK,CWS,73,P,GW,"VILLA RICA, Carroll County, GA",33.255733689048085,-83.97091996109341,54,0,3,Medium,orange
GA0470000,CATOOSA UTIL. DIST. AUTHORITY,CWS,56670,L,SWP,"RINGGOLD, Catoosa County, GA",33.30603547421735,-83.93093893000969,7,0,0,Low,yellow
GA0470001,FORT OGLETHORPE,CWS,8800,L,SWP,"FORT OGLETHORPE, Catoosa County, GA",32.986091783038425,-84.20593463649517,32,11,0,High,red
GA0470002,RINGGOLD,CWS,2743,L,SW,"RINGGOLD, Catoosa County, GA",31.88421512670091,-83.64578722606836,55,41,0,High,red
GA0490000,FOLKSTON,CWS,4641,L,GW,"FOLKSTON, Charlton County, GA",33.03187144255731,-83.14727750897707,17,9,0,High,red
GA0490001,ST. GEORGE SCHOOL,NTNCWS,227,L,GW,"SAINT GEORGE, Charlton County, GA",32.786427127219824,-84.78026685479298,39,9,1,High,red
GA0490003,DNR-STEPHEN C. FOSTER ST. PARK,TNCWS,100,S,GW,"STOCKBRIDGE, Charlton County, GA",32.98191433732429,-83.7345468601664,8,0,0,Low,yellow
GA0490008,SUWANEE CANAL RECREATION CTR.,TNCWS,591,F,GW,"FOLKSTON, Charlton County, GA",32.858766144564406,-82.41320102115911,12,0,0,Low,yellow
GA0490012,TRADERS-HILL RECREATION AREA,TNCWS,200,P,GW,"FOLKSTON, Charlton County, GA",31.730674517376844,-82.17043493502437,58,19,0,High,red
GA0490017,HOMELAND,CWS,961,L,GW,"HOMELAND, Charlton County, GA",32.50591719730861,-82.44215577109668,96,52,0,High,red
GA0490020,HOMELAND ROBIN LANE WATER SYSTEM,CWS,35,L,GWP,"HOMELAND, Charlton County, GA",33.2407059844011,-83.94427195432759,13,0,0,Low,yellow
GA0490022,THE FARM AT OKEFENOKEE,CWS,365,P,GW,"FOLKSTON, Charlton County, GA",32.0533004061937,-84.02384688138332,0,0,0,Good,green
GA0510000,GARDEN CITY,CWS,9000,L,GW,"GARDEN CITY, Chatham County, GA",32.0835,-81.0998,34,12,0,High,red
GA0510001,POOLER,CWS,21187,L,SWP,"POOLER, Chatham County, GA",32.0835,-81.0998,25,13,0,High,red
GA0510002,PORT WENTWORTH,CWS,11000,L,SWP,"PORT WENTWORTH, Chatham County, GA",32.0835,-81.0998,30,5,0,High,red
GA0510003,SAVANNAH-MAIN,CWS,168958,L,GW,"SAVANNAH, Chatham County, GA",32.0835,-81.0998,29,3,0,High,red
GA0510004,SAVANNAH-I & D,CWS,10500,L,SW,"PORT WENTWORTH, Chatham County, GA",32.0835,-81.0998,61,0,0,Low,yellow
GA0510005,TYBEE ISLAND,CWS,8047,L,GW,"TYBEE ISLAND, Chatham County, GA",32.0835,-81.0998,18,3,0,High,red
GA0510006,THUNDERBOLT,CWS,2668,L,GW,"THUNDERBOLT, Chatham County, GA",32.0835,-81.0998,72,4,1,High,red
GA0510008,SAVANNAH CHRISTIAN SCHOOL,NTNCWS,990,P,GW,"SAVANNAH, Chatham County, GA",32.0835,-81.0998,15,3,0,High,red
GA0510011,GOLDEN ISLES SUBDIVISION,CWS,555,P,GW,"SAVANNAH, Chatham County, GA",32.0835,-81.0998,21,3,1,High,red
GA0510012,GROVE HILL SUBDIVISION,CWS,286,P,GW,"SAVANNAH, Chatham County, GA",32.0835,-81.0998,3,0,0,Low,yellow
GA0510014,AZALEA MOBILE HOME PLAZA,CWS,300,P,GW,"ATLANTA, Chatham County, GA",33.749,-84.388,50,2,0,High,red
GA0510015,WATER`S BLUFF MOBILE HOME PARK,CWS,109,P,GW,"SAVANNAH, Chatham County, GA",32.0835,-81.0998,25,0,0,Low,yellow
GA0510016,BLOOMINGDALE,CWS,2500,L,GW,"BLOOMINGDALE, Chatham County, GA",32.0835,-81.0998,13,0,0,Low,yellow
GA0510017,BEVERLY PLANTATION I,CWS,130,P,GW,"SAVANNAH, Chatham County, GA",32.0835,-81.0998,7,0,0,Low,yellow
GA0510021,COTTONVALE ESTATES,CWS,255,P,GW,"SAVANNAH, Chatham County, GA",32.0835,-81.0998,29,0,1,Medium,orange
GA0510022,MIDDLEGROUND MOBILE ESTATES,CWS,210,P,GW,"SAVANNAH, Chatham County, GA",32.0835,-81.0998,26,0,0,Low,yellow
GA0510023,EAST PINES SUBDIVISION,CWS,348,P,GW,"SAVANNAH, Chatham County, GA",32.0835,-81.0998,19,0,1,Medium,orange
GA0510024,ESTILL HAMMOCK/SPANISH HAMMOCK,CWS,374,P,GW,"SAVANNAH, Chatham County, GA",32.0835,-81.0998,12,0,0,Low,yellow
GA0510026,GARDEN ACRES ESTATES,CWS,525,P,GW,"POOLER, Chatham County, GA",32.0835,-81.0998,27,0,0,Low,yellow
GA0510027,SAVANNAH-DUTCH ISLAND,CWS,1191,L,GW,"PORT WENTWORTH, Chatham County, GA",32.0835,-81.0998,16,0,0,Low,yellow
GA0510028,GRAYS SUBDIVISION,CWS,715,P,GW,"SAVANNAH, Chatham County, GA",32.0835,-81.0998,12,3,0,High,red
GA0510030,HARBOUR CREEK SUBDIVISION,CWS,543,P,GW,"SAVANNAH, Chatham County, GA",32.0835,-81.0998,23,0,0,Low,yellow
GA0510031,HOLIDAY MOBILE HOME PARK,CWS,94,P,GW,"SAVANNAH, Chatham County, GA",32.0835,-81.0998,122,0,1,Medium,orange
GA0510033,THE LANDINGS SUBDIVISION,CWS,11058,P,GW,"SAVANNAH, Chatham County, GA",32.0835,-81.0998,4,0,0,Low,yellow
GA0510034,LARCHMONT ESTATES SUBDIVISION,CWS,11799,P,GW,"SAVANNAH, Chatham County, GA",32.0835,-81.0998,115,9,1,High,red
GA0510035,NORTONS TRAILER PARK,CWS,138,P,GW,"SAVANNAH, Chatham County, GA",32.0835,-81.0998,70,7,0,High,red
GA0510036,OGEECHEE FARMS,CWS,918,P,GW,"SAVANNAH, Chatham County, GA",32.0835,-81.0998,103,3,0,High,red
GA0510038,PARKERSBURG SUBDIVISION,CWS,1253,P,GW,"SAVANNAH, Chatham County, GA",32.0835,-81.0998,24,0,0,Low,yellow
GA0510040,PINE BARREN ACRES,CWS,138,P,GW,"SAVANNAH, Chatham County, GA",32.0835,-81.0998,91,2,0,High,red
GA0510042,PLANTATION INN MOBILE ESTATES,CWS,229,P,GW,"ATLANTA, Chatham County, GA",33.749,-84.388,10,0,0,Low,yellow
GA0510044,RIO VISTA/BURNSIDE,CWS,759,P,GW,"SAVANNAH, Chatham County, GA",32.0835,-81.0998,21,0,0,Low,yellow
GA0510046,RIVER OAKS SUBDIVISION,CWS,541,P,GW,"THUNDERBOLT, Chatham County, GA",32.0835,-81.0998,7,1,0,High,red
GA0510047,MARSH POINT HOMES,CWS,497,P,GW,"SAVANNAH, Chatham County, GA",32.0835,-81.0998,29,0,0,Low,yellow
GA0510049,SOUTHSIDE MOBILE ESTATES,CWS,224,P,GW,"SAVANNAH, Chatham County, GA",32.0835,-81.0998,29,0,0,Low,yellow
GA0510050,SOUTHWINDS - WHITE OAKS,CWS,572,P,GW,"SAVANNAH, Chatham County, GA",32.0835,-81.0998,19,0,0,Low,yellow
GA0510052,TALAHI ISLAND COMMUNITY,CWS,1139,P,GW,"SAVANNAH, Chatham County, GA",32.0835,-81.0998,27,0,0,Low,yellow
GA0510054,THE BLUFF SUBDIVISION (HOA),CWS,55,P,GW,"SAVANNAH, Chatham County, GA",32.0835,-81.0998,23,6,0,High,red
GA0510055,VICKS MOBILE HOME PARK,CWS,182,P,GW,"SAVANNAH, Chatham County, GA",32.0835,-81.0998,18,10,0,High,red
GA0510060,SAVANNAH YACHT & COUNTRY CLUB,CWS,257,P,GW,"SAVANNAH, Chatham County, GA",32.0835,-81.0998,25,0,0,Low,yellow
GA0510063,SOLENIS LLC,NTNCWS,33,P,GW,"SAVANNAH, Chatham County, GA",32.0835,-81.0998,24,3,0,High,red
GA0510073,USA-HUNTER AF 702 RADER # 4-4A,TNCWS,28,F,GW,"FORT STEWART, Chatham County, GA",32.0835,-81.0998,3,0,0,Low,yellow
GA0510075,UGA-SKIDAWAY OCEANOGRAPHY INST,NTNCWS,108,S,GW,"SAVANNAH, Chatham County, GA",32.0835,-81.0998,26,0,0,Low,yellow
GA0510079,MORGAN MOBILE HOME PARK,CWS,148,P,GW,"BLOOMINGDALE, Chatham County, GA",32.0835,-81.0998,30,6,0,High,red
GA0510081,SAVANNAH-GEORGETOWN/GATEWAY,CWS,14589,L,GW,"PORT WENTWORTH, Chatham County, GA",32.0835,-81.0998,23,2,0,High,red
GA0510083,"SAVANNAH HEALTH SERVICES, LLC D/B/A MEMO",NTNCWS,4800,P,GW,"SAVANNAH, Chatham County, GA",32.0835,-81.0998,75,0,4,Medium,orange
GA0510085,OLIVER PINES,CWS,26,P,GW,"SAVANNAH, Chatham County, GA",32.0835,-81.0998,87,1,0,High,red
GA0510087,DNR-OLD FORT JACKSON MUSEUM,TNCWS,100,L,GW,"SAVANNAH, Chatham County, GA",32.0835,-81.0998,33,0,0,Low,yellow
GA0510088,DNR-SKIDAWAY ISLAND STATE PARK,TNCWS,347,S,GW,"SAVANNAH, Chatham County, GA",32.0835,-81.0998,8,0,0,Low,yellow
GA0510091,COMMODORE POINT,CWS,302,P,GW,"SAVANNAH, Chatham County, GA",32.0835,-81.0998,89,4,0,High,red
GA0510092,DERENNE PLAZA CONDOMINIUMS,CWS,175,P,GW,"SAVANNAH, Chatham County, GA",32.0835,-81.0998,22,3,0,High,red
GA0510094,WHITEMARSH ESTATES,CWS,390,P,GW,"SAVANNAH, Chatham County, GA",32.0835,-81.0998,25,0,1,Medium,orange
GA0510095,OATLAND ISLAND EDUCATION CNTR.,NTNCWS,120,L,GW,"SAVANNAH, Chatham County, GA",32.0835,-81.0998,36,3,1,High,red
GA0510096,RUNAWAY POINT,CWS,861,P,GW,"SAVANNAH, Chatham County, GA",32.0835,-81.0998,11,0,0,Low,yellow
GA0510098,ENNIS MOBILE HOME PARK,CWS,33,P,GW,"SAVANNAH, Chatham County, GA",32.0835,-81.0998,52,10,8,High,red
GA0510099,MONTGOMERY AREA,CWS,1185,P,GW,"SAVANNAH, Chatham County, GA",32.0835,-81.0998,19,3,0,High,red
GA0510100,BETHESDA HOME FOR BOYS,CWS,126,P,GW,"SAVANNAH, Chatham County, GA",32.0835,-81.0998,28,0,0,Low,yellow
GA0510104,WHITFIELD PARK SUBDIVISION,CWS,676,P,GW,"SAVANNAH, Chatham County, GA",32.0835,-81.0998,24,1,0,High,red
GA0510107,USA-HUNTER ARMY AIRFIELD - MAIN,CWS,7500,F,GW,"FORT STEWART, Chatham County, GA",32.0835,-81.0998,10,0,0,Low,yellow
GA0510109,GLEN OF ROBIN HOOD,CWS,5000,P,GW,"SAVANNAH, Chatham County, GA",32.0835,-81.0998,17,3,0,High,red
GA0510110,FOSS MOBILE HOME PARK,CWS,221,P,GW,"SAVANNAH, Chatham County, GA",32.0835,-81.0998,63,1,0,High,red
GA0510112,QUACCO VILLAGE,CWS,138,P,GW,"SAVANNAH, Chatham County, GA",32.0835,-81.0998,36,7,0,High,red
GA0510113,GROVE POINT MOBILE ESTATES,CWS,206,P,GW,"SAVANNAH, Chatham County, GA",32.0835,-81.0998,9,0,0,Low,yellow
GA0510114,BELLAIRE VILLAGE SUBDIVISION,CWS,57,P,GW,"SAVANNAH, Chatham County, GA",32.0835,-81.0998,48,12,3,High,red
GA0510121,BEAULIEU VILLAGE SUBDIVISION,CWS,143,P,GW,"SAVANNAH, Chatham County, GA",32.0835,-81.0998,23,0,0,Low,yellow
GA0510123,DERRICK SUBDIVISION,CWS,125,P,GW,"SAVANNAH, Chatham County, GA",32.0835,-81.0998,13,0,0,Low,yellow
GA0510124,LITTLE NECK PLANTATION,CWS,111,L,GW,"SAVANNAH, Chatham County, GA",32.0835,-81.0998,24,0,1,Medium,orange
GA0510126,MILLER PINES MOBILE HOME PARK,CWS,96,P,GW,"SAVANNAH, Chatham County, GA",32.0835,-81.0998,38,0,0,Low,yellow
GA0510128,MODENA ISLAND,CWS,98,L,GW,"SAVANNAH, Chatham County, GA",32.0835,-81.0998,35,0,1,Medium,orange
GA0510133,HUNTER'S RIDGE,CWS,660,P,GW,"SAVANNAH, Chatham County, GA",32.0835,-81.0998,6,0,0,Low,yellow
GA0510134,WILMINGTON ISLAND WATER SUPPLY,TNCWS,100,P,GW,"SAVANNAH, Chatham County, GA",32.0835,-81.0998,66,27,0,High,red
GA0510139,HEATHCOTE FARMS SUBDIVISION,CWS,68,P,GW,"SAVANNAH, Chatham County, GA",32.0835,-81.0998,36,0,0,Low,yellow
GA0510141,WHITFIELD MOBILE ESTATES,CWS,86,P,GW,"SAVANNAH, Chatham County, GA",32.0835,-81.0998,32,0,0,Low,yellow
GA0510144,RIVERVIEW MOBILE INN,CWS,179,P,GW,"SAVANNAH, Chatham County, GA",32.0835,-81.0998,30,0,0,Low,yellow
GA0510145,SAVANNAH RV RESORT,CWS,25,P,GW,"SAVANNAH, Chatham County, GA",32.0835,-81.0998,35,0,3,Medium,orange
GA0510157,RIVERSIDE ESTATES,CWS,75,P,GW,"SAVANNAH, Chatham County, GA",32.0835,-81.0998,102,1,0,High,red
GA0510163,SEABREEZE MOBILE HOME PARK,CWS,83,P,GW,"SAVANNAH, Chatham County, GA",32.0835,-81.0998,37,8,0,High,red
GA0510168,THUNDERBIRD MOTEL,TNCWS,35,P,GW,"SAVANNAH, Chatham County, GA",32.0835,-81.0998,23,2,0,High,red
GA0510171,ROGER WOOD PACKING COMPANY,NTNCWS,220,P,GW,"SAVANNAH, Chatham County, GA",32.0835,-81.0998,80,2,0,High,red
GA0510188,"SAVANNAH STEEL, INC.",NTNCWS,40,P,GW,"THUNDERBOLT, Chatham County, GA",32.0835,-81.0998,39,4,0,High,red
GA0510189,"TURNERS CREEK HOLDINGS, LLC  DONNELLY",TNCWS,50,P,GW,"SAVANNAH, Chatham County, GA",32.0835,-81.0998,17,1,0,High,red
GA0510195,SOUTHERN LNG INC.,NTNCWS,35,P,GW,"SAVANNAH, Chatham County, GA",32.0835,-81.0998,25,5,0,High,red
GA0510206,LMASAVANNAH,TNCWS,66,P,GW,"SAVANNAH, Chatham County, GA",32.0835,-81.0998,26,0,3,Medium,orange
GA0510207,SANDMAN MOTEL,TNCWS,25,P,GW,"SAVANNAH, Chatham County, GA",32.0835,-81.0998,39,0,0,Low,yellow
GA0510215,LOVE`S FISHING CAMP RESTAURANT,TNCWS,229,P,GW,"SAVANNAH, Chatham County, GA",32.0835,-81.0998,15,2,0,High,red
GA0510216,SAVANNAH YACHT CLUB,TNCWS,175,P,GW,"SAVANNAH, Chatham County, GA",32.0835,-81.0998,24,2,0,High,red
GA0510223,BEVERLY PLANTATION II,CWS,65,P,GW,"SAVANNAH, Chatham County, GA",32.0835,-81.0998,16,6,0,High,red
GA0510224,FORT PULASKI NATIONAL MONUMENT VIS CTR,TNCWS,912,F,GW,"SAVANNAH, Chatham County, GA",32.0835,-81.0998,5,3,0,High,red
GA0510225,FT. PULASKI NATL. MONT. PICNIC,NTNCWS,133,F,GW,"SAVANNAH, Chatham County, GA",32.0835,-81.0998,16,0,0,Low,yellow
GA0510229,SAVANNAH-WILMINGTON ISLAND,CWS,13526,L,GW,"PORT WENTWORTH, Chatham County, GA",32.0835,-81.0998,28,3,0,High,red
GA0510231,USA-HUNTER AF LOTTS ISL WELL 7,TNCWS,25,F,GW,"FORT STEWART, Chatham County, GA",32.0835,-81.0998,4,0,0,Low,yellow
GA0510232,USA-HUNTER AF REC AREA #3,TNCWS,30,F,GW,"FORT STEWART, Chatham County, GA",32.0835,-81.0998,3,1,0,High,red
GA0510235,DEAN FOREST ROAD TRAILER PARK,CWS,65,P,GW,"SAVANNAH, Chatham County, GA",32.0835,-81.0998,32,9,0,High,red
GA0510236,DOT-REST AREA/WELCOME CTR. 112,TNCWS,4500,S,GW,"GARDEN CITY, Chatham County, GA",32.0835,-81.0998,69,6,0,High,red
GA0510240,ISLANDS EXPRESSWAY REC. PARK,TNCWS,50,P,GW,"SAVANNAH, Chatham County, GA",32.0835,-81.0998,10,4,0,High,red
GA0510249,ARGYLE VILLAGE SUBDIVISION,CWS,57,P,GW,"SAVANNAH, Chatham County, GA",32.0835,-81.0998,42,2,4,High,red
GA0510250,SAVANNAH-WHITEMARSH ISLAND,CWS,4247,L,GW,"SAVANNAH, Chatham County, GA",32.0835,-81.0998,22,0,0,Low,yellow
GA0510251,"GURUDEVDUTT18, LLC.",TNCWS,250,P,GW,"SAVANNAH, Chatham County, GA",32.0835,-81.0998,5,0,0,Low,yellow
GA0510253,FORT ARGYLE-RIVER BLUFF,CWS,463,P,GW,"SAVANNAH, Chatham County, GA",32.0835,-81.0998,16,3,0,High,red
GA0510255,AIRPORT OFFICES & INDUSTRIAL PARK,NTNCWS,32,P,GW,"SAVANNAH, Chatham County, GA",32.0835,-81.0998,26,10,0,High,red
GA0510259,SAVANNAH-SAVANNAH QUARTERS,CWS,2665,L,GW,"SAVANNAH, Chatham County, GA",32.0835,-81.0998,23,0,2,Medium,orange
GA0510265,SAVANNAH BEND MARINA,TNCWS,25,P,GW,"THUNDERBOLT, Chatham County, GA",32.0835,-81.0998,26,2,0,High,red
GA0510266,B`DETTE MOBILE BLUFF,CWS,68,P,GW,"SAVANNAH, Chatham County, GA",32.0835,-81.0998,26,0,0,Low,yellow
GA0510267,SANDY BLUFF SUBDIVISION,CWS,62,P,GW,"SAVANNAH, Chatham County, GA",32.0835,-81.0998,23,2,0,High,red
GA0510270,"WRENNDOROSA, INC.",CWS,49,P,GW,"SAVANNAH, Chatham County, GA",32.0835,-81.0998,13,0,0,Low,yellow
GA0510271,ALPHA & OMEGA MINISTRIES,NTNCWS,400,P,GW,"SAVANNAH, Chatham County, GA",32.0835,-81.0998,25,0,0,Low,yellow
GA0510273,D HOFFMAN SUBWAY RESTAURANT,TNCWS,50,P,GW,"SAVANNAH, Chatham County, GA",32.0835,-81.0998,7,3,0,High,red
GA0510275,DEAN FOREST RD.TP-NORTH,CWS,39,P,GW,"SAVANNAH, Chatham County, GA",32.0835,-81.0998,28,2,0,High,red
GA0510277,CHATHAM COUNTY - TOM TRIPLETT PARK,TNCWS,250,L,GW,"SAVANNAH, Chatham County, GA",32.0835,-81.0998,6,0,0,Low,yellow
GA0510278,DEAN FOREST INDUSTRIAL PARK,NTNCWS,26,P,GW,"SAVANNAH, Chatham County, GA",32.0835,-81.0998,0,0,0,Good,green
GA0510280,GARDEN CITY - TOWN CENTER,CWS,514,L,GWP,"GARDEN CITY, Chatham County, GA",32.0835,-81.0998,2,0,0,Low,yellow
GA0510281,ROCKINGHAM FARMS MONTESSORI SCHOOL,NTNCWS,100,P,GW,"PORT WENTWORTH, Chatham County, GA",32.0835,-81.0998,3,0,1,Medium,orange
GA0510283,SWAMP FOX WATER SYSTEM,TNCWS,100,P,GW,"PORT WENTWORTH, Chatham County, GA",32.0835,-81.0998,38,0,0,Low,yellow
GA0510285,BLOOMINGDALE SOUTH,CWS,25,L,GWP,"BLOOMINGDALE, Chatham County, GA",32.0835,-81.0998,1,0,1,Medium,orange
GA0510286,PROSPERITY DRIVE,NTNCWS,25,L,SWP,"GARDEN CITY, Chatham County, GA",32.0835,-81.0998,0,0,0,Good,green
GA0530002,CHATTAHOOCHEE COUNTY,CWS,3267,L,GW,"CUSSETA, Chattahoochee County, GA",31.755440884373968,-83.02567456196499,33,0,1,Medium,orange
GA0530004,CAMP DARBY,TNCWS,115,F,GW,"COLUMBUS, Chattahoochee County, GA",32.4609,-84.9877,6,0,0,Low,yellow
GA0530005,HASTINGS RANGE,TNCWS,106,F,GW,"COLUMBUS, Chattahoochee County, GA",32.4609,-84.9877,9,0,0,Low,yellow
GA0530007,GRISWOLD RANGE,TNCWS,25,F,GW,"COLUMBUS, Chattahoochee County, GA",32.4609,-84.9877,0,0,0,Good,green
GA0530009,MCKENNA MOUNT RANGE,TNCWS,164,F,GW,"COLUMBUS, Chattahoochee County, GA",32.4609,-84.9877,6,0,0,Low,yellow
GA0530010,LEYTE FIELD,TNCWS,380,L,GW,"COLUMBUS, Muscogee County, GA",32.4609,-84.9877,0,0,0,Good,green
GA0530012,TRICOLOR ROAD,TNCWS,48,L,GW,"COLUMBUS, Muscogee County, GA",32.4609,-84.9877,1,0,0,Low,yellow
GA0530013,FORT MOORE - GOOD HOPE RANGE,TNCWS,40,L,GW,"FORT BENNING (U.S. ARMY), Chattahoochee County, GA",32.4609,-84.9877,0,0,0,Good,green
GA0530014,FORT MOORE - GARNSEY RANGE,TNCWS,100,L,GW,"COLUMBUS, Chattahoochee County, GA",32.4609,-84.9877,0,0,0,Good,green
GA0550000,CHATTOOGA COUNTY,CWS,7800,L,GW,"TRION, Chattooga County, GA",31.817216159203713,-83.12963776234632,13,0,1,Medium,orange
GA0550001,LYERLY,CWS,1638,L,SWP,"LYERLY, Chattooga County, GA",31.68034038763013,-83.11891075995098,28,0,0,Low,yellow
GA0550002,MENLO,CWS,949,L,GW,"MENLO, Chattooga County, GA",33.43063493166276,-83.48041038172232,24,1,1,High,red
GA0550003,SUMMERVILLE,CWS,9993,L,SW,"SUMMERVILLE, Chattooga County, GA",31.93813668590801,-82.92363646161002,30,10,0,High,red
GA0550006,"MOUNT VERNON MILLS, INC.",NTNCWS,2481,P,GW,"TRION, Chattooga County, GA",32.618026514647966,-84.74955558348151,16,0,0,Low,yellow
GA0550015,CAMP JULIETTE LOW,TNCWS,162,P,GW,"CLOUDLAND, Chattooga County, GA",32.338840612762766,-84.92442744951371,7,6,0,High,red
GA0550049,TRION,CWS,2043,L,GWP,"TRION, Chattooga County, GA",32.18541636968645,-83.01305180449512,55,6,0,High,red
GA0570000,BALL GROUND,CWS,2470,L,GW,"BALL GROUND, Cherokee County, GA",32.2250668651293,-84.61478098168618,22,2,0,High,red
GA0570001,CANTON,CWS,16375,L,SW,"CANTON, Cherokee County, GA",31.88712996179554,-83.58871854086335,35,10,0,High,red
GA0570002,CHEROKEE COUNTY,CWS,189542,L,SW,"CANTON, Cherokee County, GA",31.83039096018554,-83.4321953847605,5,4,0,High,red
GA0570003,WOODSTOCK,CWS,19742,L,SWP,"WOODSTOCK, Cherokee County, GA",33.27894428090669,-84.76439248535279,25,2,0,High,red
GA0570006,LAKE ARROWHEAD SUBDIVISION,CWS,4844,P,GW,"WALESKA, Cherokee County, GA",32.12285255288875,-82.02325745739141,58,16,1,High,red
GA0570017,"ATLANTA YACHT CLUB, INC.",TNCWS,30,P,GW,"ATLANTA, Cherokee County, GA",33.749,-84.388,17,0,0,Low,yellow
GA0570023,HEMBREE WATER,CWS,257,P,SWP,"CANTON, Cherokee County, GA",33.45347826213813,-84.77001878850267,69,0,2,Medium,orange
GA0570024,WALESKA,CWS,4657,L,SWP,"WALESKA, Cherokee County, GA",31.97863802159532,-83.68737558853461,28,0,0,Low,yellow
GA0570048,CHEROKEE OUTDOOR YMCA,TNCWS,400,P,GW,"WOODSTOCK, Cherokee County, GA",32.410065955576414,-82.56415210044942,64,6,0,High,red
GA0570075,CHEROKEE COUNTY-SALACOA AREA,CWS,465,L,SWP,"CANTON, Cherokee County, GA",33.53760990199087,-84.77658754394045,2,0,0,Low,yellow
GA0590000,ATHENS-CLARKE CO WATER SYSTEM,CWS,125000,L,SW,"ATHENS, Clarke County, GA",33.9519,-83.3576,29,12,0,High,red
GA0590003,COUNTRY CORNERS MOBILE HOME COMMUNITY,CWS,390,P,SWP,"ATHENS, Clarke County, GA",33.9519,-83.3576,41,2,0,High,red
GA0590004,HALLMARK MANUFACTURED HOUSING COMMUNITY,CWS,753,P,GW,"ATHENS, Clarke County, GA",33.9519,-83.3576,45,4,1,High,red
GA0590007,SANDY SPRINGS SUBDIVISION,CWS,55,P,GW,"ATLANTA, Clarke County, GA",33.749,-84.388,40,5,0,High,red
GA0590009,PINEWOOD ESTATES NORTH,CWS,581,P,GW,"ATHENS, Clarke County, GA",33.9519,-83.3576,30,0,0,Low,yellow
GA0590013,CHEROKEE MOBILE HOME PARK,CWS,100,P,GW,"WINTERVILLE, Clarke County, GA",33.9519,-83.3576,104,4,4,High,red
GA0590020,RAMBLE HILLS SUBDIVISION,CWS,157,P,GW,"ATHENS, Clarke County, GA",33.9519,-83.3576,82,3,0,High,red
GA0590054,BEAVER DAM ESTATES M. H. P.,CWS,78,P,GW,"ATHENS, Clarke County, GA",33.9519,-83.3576,260,16,13,High,red
GA0590055,MINERAL SPRINGS SUBDIVISION,CWS,35,P,GW,"EATONTON, Clarke County, GA",33.9519,-83.3576,31,0,0,Low,yellow
GA0590070,FOWLER`S MILL SUBDIVISION,CWS,122,P,GW,"EATONTON, Clarke County, GA",33.9519,-83.3576,43,11,0,High,red
GA0590071,CRESTMONT FARMS SUBDIVISION,CWS,170,P,SWP,"ATHENS, Clarke County, GA",33.9519,-83.3576,108,75,0,High,red
GA0610000,BLUFFTON,CWS,149,L,GW,"BLUFFTON, Clay County, GA",33.57034858434291,-82.68347239549499,74,2,0,High,red
GA0610001,FORT GAINES,CWS,1173,L,GW,"FORT GAINES, Clay County, GA",32.91599327023909,-82.92122288537529,57,15,4,High,red
GA0610005,PATAULA SHORES MOBILE HOME PARK,TNCWS,81,P,GW,"CUTHBERT, Clay County, GA",31.964080743926438,-83.8000943050766,72,7,0,High,red
GA0610023,DNR-GEORGE T BAGBY STATE PARK,TNCWS,260,S,GW,"ALBANY, Clay County, GA",31.5785,-84.1557,68,6,1,High,red
GA0610027,DNR-GEORGE T BAGBY GOLF COURSE,TNCWS,112,S,GW,"FORT GAINES, Clay County, GA",31.5785,-84.1557,15,0,0,Low,yellow
GA0610029,CLAY COUNTY WATER SYSTEM,CWS,1085,L,GW,"FORT GAINES, Clay County, GA",31.73048905589617,-82.75272116646981,23,8,0,High,red
GA0630000,CLAYTON COUNTY WATER AUTHORITY,CWS,298374,L,SW,"MORROW, Clayton County, GA",33.5379,-84.3426,10,4,0,High,red
GA0630008,CORINTH WOODS SUBDIVISION,CWS,75,P,GW,"JACKSON, Clayton County, GA",33.5379,-84.3426,159,20,3,High,red
GA0630011,CAMP CALVIN,TNCWS,50,P,GW,"HAMPTON, Clayton County, GA",33.5379,-84.3426,67,14,0,High,red
GA0650000,HOMERVILLE,CWS,3210,L,GW,"HOMERVILLE, Clinch County, GA",32.386808238367045,-82.43004087475497,45,7,0,High,red
GA0650001,FARGO,CWS,380,L,GW,"FARGO, Clinch County, GA",33.611637465189744,-83.34219657437745,39,2,0,High,red
GA0650004,DUPONT WATER SYSTEM,CWS,120,L,GW,"DU PONT, Clinch County, GA",32.08134717923783,-83.74718687541035,44,0,0,Low,yellow
GA0650013,ARGYLE,CWS,173,L,GW,"ARGYLE, Clinch County, GA",32.973007467319974,-83.3290421379201,134,3,0,High,red
GA0650014,BRIDGES OF HOPE TRUST,NTNCWS,43,P,GW,"HOMERVILLE, Clinch County, GA",32.20156567422381,-83.7074609039968,12,0,0,Low,yellow
GA0650016,HOMERVILLE INDUSTRIAL PARK WATER SYSTEM,NTNCWS,50,L,GW,"HOMERVILLE, Clinch County, GA",33.409869040230575,-83.12558166810429,1,0,1,Medium,orange
GA0670001,AUSTELL,CWS,7774,L,SWP,"AUSTELL, Cobb County, GA",33.9526,-84.5464,14,2,0,High,red
GA0670002,COBB CO.-MARIETTA WATER AUTH.,CWS,0,L,SW,"MARIETTA, Cobb County, GA",33.9526,-84.5464,6,0,0,Low,yellow
GA0670003,COBB COUNTY,CWS,695000,L,SWP,"MARIETTA, Cobb County, GA",33.9526,-84.5464,6,2,0,High,red
GA0670005,MARIETTA BOARD OF LIGHTS AND WATER,CWS,60100,L,SWP,"MARIETTA, Cobb County, GA",33.9526,-84.5464,4,1,0,High,red
GA0670007,SMYRNA,CWS,40508,L,SWP,"SMYRNA, Cobb County, GA",33.884,-84.5144,5,0,0,Low,yellow
GA0690000,AMBROSE,CWS,332,L,GW,"AMBROSE, Coffee County, GA",32.579950687373,-82.93434099689561,109,0,9,Medium,orange
GA0690001,BROXTON,CWS,1353,L,GW,"BROXTON, Coffee County, GA",31.967433925484787,-82.62772357124211,99,0,3,Medium,orange
GA0690002,DOUGLAS,CWS,12706,L,GW,"DOUGLAS, Coffee County, GA",32.29243723629632,-83.61416968037503,11,6,0,High,red
GA0690003,NICHOLLS,CWS,3514,L,GW,"NICHOLLS, Coffee County, GA",32.00649443176305,-84.53234057836355,20,0,0,Low,yellow
GA0690006,WEST GREEN ELEMENTARY SCHOOL,NTNCWS,300,L,GW,"WEST GREEN, Coffee County, GA",32.901506419051636,-84.04699680656805,24,0,0,Low,yellow
GA0690007,DNR-GENERAL COFFEE STATE PARK,TNCWS,400,S,GW,"NICHOLLS, Coffee County, GA",33.58773445650289,-83.72144347589467,16,1,0,High,red
GA0690009,HILLSIDE TRAILER PARK,CWS,185,P,GW,"DOUGLAS, Coffee County, GA",32.33425664340463,-82.61815421047953,34,3,1,High,red
GA0690018,EVANS TRAILER PARK  #2,CWS,254,P,GW,"DOUGLAS, Coffee County, GA",31.883450909936506,-84.1472537908063,137,7,3,High,red
GA0690027,CITIZENS CHRISTIAN ACADEMY,NTNCWS,275,P,GW,"DOUGLAS, Coffee County, GA",32.448707735822026,-82.35120267594212,110,9,0,High,red
GA0690031,BAY MEADOWS ESTATES,CWS,1674,P,GW,"SAVANNAH, Coffee County, GA",32.0835,-81.0998,63,4,0,High,red
GA0690032,SATILLA ELEMENTARY SCHOOL,NTNCWS,600,P,GW,"DOUGLAS, Coffee County, GA",33.30739432889262,-82.50260428493893,15,0,0,Low,yellow
GA0690034,SHADY PINES MOBILE HOME PARK,CWS,189,P,GW,"DOUGLAS, Coffee County, GA",32.78052013642552,-83.97505196602798,111,3,2,High,red
GA0690035,COUNTRY MEADOWS S/D,CWS,265,P,GW,"SAVANNAH, Coffee County, GA",32.0835,-81.0998,13,0,0,Low,yellow
GA0690037,GREENETREE LAKES,CWS,247,P,GW,"BROXTON, Coffee County, GA",32.0835,-81.0998,11,3,0,High,red
GA0690038,PLANTATION ESTATES MHP,CWS,91,P,GW,"DOUGLAS, Coffee County, GA",31.699600791233856,-84.82406511180007,57,0,1,Medium,orange
GA0690039,SLEEPY HOLLOW MOBILE HOME PARK,CWS,233,P,GW,"DOUGLAS, Coffee County, GA",31.967904462196984,-83.41386436236222,47,0,2,Medium,orange
GA0690040,BEAR CREEK MOBILE HOME PARK,CWS,243,P,GW,"DOUGLAS, Coffee County, GA",33.336109892808494,-83.19785258409367,15,0,1,Medium,orange
GA0690048,RIDGEWOOD MOBILE HOME COMMUNITY,CWS,106,P,GW,"DOUGLAS, Coffee County, GA",33.13153048738353,-83.95418525931746,86,3,1,High,red
GA0690054,CHEROKEE HEIGHTS MHP,CWS,60,P,GW,"DOUGLAS, Coffee County, GA",33.641223413272904,-82.16697083771155,203,3,4,High,red
GA0690055,LAKEWOOD SUBDIVISION,CWS,146,P,GW,"SAVANNAH, Coffee County, GA",32.0835,-81.0998,6,0,0,Low,yellow
GA0690059,T & H MOBILE HOME PARK,CWS,213,P,GW,"POOLER, Coffee County, GA",33.52769803393915,-82.14470540533581,27,3,1,High,red
GA0690063,POWELL MOBILE HOME PARK,CWS,71,P,GW,"DOUGLAS, Coffee County, GA",32.386622794471144,-84.09103882579716,127,6,4,High,red
GA0690066,COTTON HILL ESTATES MOBILE HOME PARK,CWS,52,P,GW,"DOUGLAS, Coffee County, GA",31.741555336784447,-84.00071779963628,23,0,2,Medium,orange
GA0690070,FOREST HILLS SUBDIVISION,CWS,42,P,GW,"DOUGLAS, Coffee County, GA",32.0835,-81.0998,61,0,0,Low,yellow
GA0690071,SOUTH POINTE S/D,CWS,65,P,GW,"POOLER, Coffee County, GA",33.558214183389545,-82.44410427646893,12,0,1,Medium,orange
GA0690074,NORTHRIDGE SUBDIVISION,CWS,44,P,GW,"SAVANNAH, Coffee County, GA",32.0835,-81.0998,13,0,0,Low,yellow
GA0690075,KINGSRIDGE SUBDIVISION,CWS,57,P,GW,"SAVANNAH, Coffee County, GA",32.0835,-81.0998,24,3,0,High,red
GA0690077,GREENFIELD SUBDIVISION,CWS,44,P,GW,"SAVANNAH, Coffee County, GA",32.0835,-81.0998,2,0,0,Low,yellow
GA0690078,WEST POINTE SUBDIVISION,CWS,57,P,GW,"BLACKSHEAR, Coffee County, GA",32.74422479239979,-82.30453638733145,58,3,1,High,red
GA0690081,TIMBER RIDGE SUBDIVISION,CWS,42,P,GW,"SAVANNAH, Coffee County, GA",32.0835,-81.0998,40,40,0,High,red
GA0690083,UPTON JUNCTION PHASE 11,CWS,185,P,GW,"DOUGLAS, Coffee County, GA",33.33570801522396,-83.55709261809021,177,6,6,High,red
GA0690084,CROSSWINDS SUBDIVISION,CWS,65,P,GW,"SAVANNAH, Coffee County, GA",32.0835,-81.0998,24,0,0,Low,yellow
GA0690085,MILL BRANCH SUBDIVISION,CWS,31,P,GW,"SAVANNAH, Coffee County, GA",32.0835,-81.0998,37,0,1,Medium,orange
GA0690088,PREMIUM PEANUT LLC,NTNCWS,125,P,GW,"DOUGLAS, Coffee County, GA",32.535005612861326,-82.62093642219229,7,0,0,Low,yellow
GA0690089,DOLLAR GENERAL #20437,TNCWS,30,P,GW,"DOUGLAS, Coffee County, GA",32.041206043965566,-83.4948327010423,0,0,0,Good,green
GA0710000,BERLIN,CWS,643,L,GW,"BERLIN, Colquitt County, GA",33.492750124933295,-82.33515331653878,30,0,0,Low,yellow
GA0710001,DOERUN,CWS,1010,L,GW,"DOERUN, Colquitt County, GA",32.38236663349737,-83.21733238624074,114,9,2,High,red
GA0710002,ELLENTON,CWS,359,L,GW,"ELLENTON, Colquitt County, GA",31.666130792678675,-84.55954170325488,2,0,0,Low,yellow
GA0710003,FUNSTON,CWS,653,L,GW,"FUNSTON, Colquitt County, GA",33.4595446010523,-81.98618483890169,63,0,0,Low,yellow
GA0710004,MOULTRIE,CWS,17067,L,GW,"MOULTRIE, Colquitt County, GA",32.4543116684213,-83.71094229373769,81,1,0,High,red
GA0710005,NORMAN PARK,CWS,1134,L,GW,"NORMAN PARK, Colquitt County, GA",32.94928426076556,-82.34857609801708,30,0,4,Medium,orange
GA0710008,COLQUITT COUNTY CHILD DEVELOPMENT  CTR,NTNCWS,178,L,GW,"MOULTRIE, Colquitt County, GA",31.845771662706937,-84.78354876315827,9,0,0,Low,yellow
GA0710009,HAMILTON ELEMENTARY SCHOOL,NTNCWS,320,L,GW,"HARTSFIELD, Colquitt County, GA",32.628772972516096,-83.11348898438843,11,0,0,Low,yellow
GA0710010,OKAPILCO ELEMENTARY SCHOOL,NTNCWS,500,L,GW,"MOULTRIE, Colquitt County, GA",32.43778511679513,-82.45730286192878,8,0,0,Low,yellow
GA0710015,SHADY GROVE SUBDIVISION,CWS,154,P,GW,"SAVANNAH, Colquitt County, GA",32.0835,-81.0998,2,0,0,Low,yellow
GA0710016,SPENCETON SUBDIVISION 1,CWS,62,P,GW,"SAVANNAH, Colquitt County, GA",32.0835,-81.0998,7,0,0,Low,yellow
GA0710017,SPENCETON SUBDIVISION 2,CWS,216,P,GW,"SAVANNAH, Colquitt County, GA",32.0835,-81.0998,3,0,0,Low,yellow
GA0710021,SPENCEFIELD AIRPORT,CWS,528,L,GW,"MOULTRIE, Colquitt County, GA",32.05238035795364,-84.28840049126337,26,0,1,Medium,orange
GA0710023,TALLOKAS TRAILS/CIRCLE,CWS,451,P,GW,"SAVANNAH, Colquitt County, GA",32.0835,-81.0998,50,0,0,Low,yellow
GA0710024,BEAR CREEK SUBDIVISION,CWS,383,P,GW,"SAVANNAH, Colquitt County, GA",32.0835,-81.0998,5,0,0,Low,yellow
GA0710027,KENDALLWOOD CROSSING SUBDIVISION,CWS,97,P,GW,"SAVANNAH, Colquitt County, GA",32.0835,-81.0998,4,0,0,Low,yellow
GA0710028,CRESTWOOD CROSSING SUBDIVISION,CWS,32,P,GW,"SAVANNAH, Colquitt County, GA",32.0835,-81.0998,1,0,0,Low,yellow
GA0710029,VINLAND SUBDIVISION,CWS,57,P,GW,"SAVANNAH, Colquitt County, GA",32.0835,-81.0998,8,0,0,Low,yellow
GA0710033,COUNTRY CIRCLE SUBDIVISION,CWS,76,P,GW,"SAVANNAH, Colquitt County, GA",32.0835,-81.0998,412,2,0,High,red
GA0710034,GREEN ACRES MOBILE HOME EST,CWS,49,P,GW,"OMEGA, Colquitt County, GA",33.45625281215459,-82.76539658012356,160,9,1,High,red
GA0710038,PINEY GROVE SUBDIVISION,CWS,81,P,GW,"NORMAN PARK, Colquitt County, GA",31.674947866104816,-83.93367153996407,273,0,0,Low,yellow
GA0710040,RIVERWOOD SUBDIVISION,CWS,413,P,GW,"SAVANNAH, Colquitt County, GA",32.0835,-81.0998,8,0,0,Low,yellow
GA0710041,SANDS MOBILE HOME PARK,CWS,73,P,GW,"MOULTRIE, Colquitt County, GA",32.00616740297593,-82.79176381726397,208,4,1,High,red
GA0710070,ODOM ELEMENTARY SCHOOL,NTNCWS,725,P,GW,"MOULTRIE, Colquitt County, GA",32.177357024479704,-83.33368283323212,11,0,0,Low,yellow
GA0710072,TALLOKAS ESTATES,CWS,54,P,GW,"MOULTRIE, Colquitt County, GA",33.39712750125425,-82.9196197449465,10,6,0,High,red
GA0710077,SOUTHLAKE SUBDIVISION,CWS,146,P,GW,"SAVANNAH, Colquitt County, GA",32.0835,-81.0998,15,0,0,Low,yellow
GA0710081,PAVO ROAD FARM WS,CWS,86,P,GW,"NORMAN PARK, Colquitt County, GA",33.3597290436017,-82.24995547716757,39,0,0,Low,yellow
GA0710082,DEER RUN ESTATES MHP,CWS,86,P,GW,"NORMAN PARK, Colquitt County, GA",32.064174342113866,-83.8210319392359,26,0,0,Low,yellow
GA0710083,HOWARD KNIGHT TRAILER PARKS,CWS,151,P,GW,"MOULTRIE, Colquitt County, GA",33.24982165147777,-82.7242518788177,8,0,1,Medium,orange
GA0710085,THORNRIDGE SUBDIVISION,CWS,32,P,GW,"MOULTRIE, Colquitt County, GA",33.02004210276765,-82.08001740144392,11,0,1,Medium,orange
GA0710086,HAMILTON GROWERS MIGRANT CAMP,NTNCWS,300,P,GW,"NORMAN PARK, Colquitt County, GA",33.05672344589086,-82.84394887878493,18,0,0,Low,yellow
GA0710087,TALLOKAS TRAIL,CWS,105,P,GW,"THOMASVILLE, Colquitt County, GA",33.2853323389297,-84.58289329006041,20,0,0,Low,yellow
GA0710088,SUNLIT PINES MHP,CWS,39,P,GW,"CAMILLA, Colquitt County, GA",31.772435766156594,-83.71981711575708,13,0,0,Low,yellow
GA0710089,GREENFIELD MHP,CWS,76,P,GW,"MOULTRIE, Colquitt County, GA",32.546536269903974,-81.98074320805014,15,0,0,Low,yellow
GA0710091,HAVEN HILL ESTATES MHP,CWS,327,P,GW,"NORMAN PARK, Colquitt County, GA",32.08453469195147,-82.24215192098997,21,0,1,Medium,orange
GA0710092,BAKER FARMS MIGRANT CAMP,NTNCWS,200,P,GW,"ADEL, Colquitt County, GA",32.520063692882566,-83.48100313875193,4,0,0,Low,yellow
GA0710093,HILLTOP SUBDIVISION,CWS,41,P,GW,"SAVANNAH, Colquitt County, GA",32.0835,-81.0998,5,0,0,Low,yellow
GA0710097,SHADOWOODS SUBDIVISION,CWS,105,P,GW,"SAVANNAH, Colquitt County, GA",32.0835,-81.0998,21,0,0,Low,yellow
GA0710099,LIBERTY FAITH CHRISTIAN ACADEMY,NTNCWS,25,P,GW,"MOULTRIE, Colquitt County, GA",32.266782553788936,-84.89071601352278,8,0,0,Low,yellow
GA0710101,L&M FARMS MOULTRIE CAMP,NTNCWS,110,P,GW,"MOULTRIE, Colquitt County, GA",32.45168249383561,-84.52944655490752,49,48,1,High,red
GA0710102,KNIGHT HOUSING DEVELOPMENT,TNCWS,50,P,GW,"MOULTRIE, Colquitt County, GA",32.12492938827761,-81.9777749561314,4,4,0,High,red
GA0710103,THE ENCLAVE SUBDIVISION,CWS,32,P,GW,"MOULTRIE, Colquitt County, GA",32.343025369399484,-84.07013866173864,0,0,0,Good,green
GA0730000,COLUMBIA COUNTY,CWS,124763,L,SW,"MARTINEZ, Columbia County, GA",33.18685622927452,-84.44674170806819,17,2,0,High,red
GA0730001,GROVETOWN,CWS,16000,L,SWP,"GROVETOWN, Columbia County, GA",32.291779719987446,-82.72486048093289,57,11,0,High,red
GA0730009,DNR-MISTLETOE STATE PARK,TNCWS,999,S,GW,"APPLING, Columbia County, GA",33.48016602344065,-84.25085603804054,14,0,0,Low,yellow
GA0730010,MARTINEZ WATER ASSOC.,CWS,150,P,GW,"MARTINEZ, Columbia County, GA",32.26237497311486,-84.25644389121261,24,0,0,Low,yellow
GA0730017,WINDY ACRES MOBILE HOME PARK,CWS,162,P,GW,"GROVETOWN, Columbia County, GA",32.71227761939785,-83.29320914731736,10,0,2,Medium,orange
GA0730020,MOBILE CITY MOBILE HOME PARK,CWS,87,P,GW,"AUGUSTA, Columbia County, GA",33.4735,-82.0105,74,24,0,High,red
GA0730022,PINENEEDLE COMMUNITY LIVING,CWS,150,P,GW,"HARLEM, Columbia County, GA",33.4735,-82.0105,77,2,4,High,red
GA0730052,TRADEWINDS MARINA,TNCWS,692,P,GW,"APPLING, Columbia County, GA",33.62324538908836,-82.26877819447381,47,2,0,High,red
GA0730081,AUGUSTA SAILING CLUB,TNCWS,302,P,GW,"EVANS, Columbia County, GA",31.87491570866594,-82.15175351622658,7,0,0,Low,yellow
GA0750000,ADEL,CWS,6560,L,GW,"ADEL, Cook County, GA",32.11903362369236,-83.1813949082849,8,0,0,Low,yellow
GA0750001,CECIL,CWS,446,L,GW,"CECIL, Cook County, GA",32.27253163294684,-82.5083124737286,25,0,2,Medium,orange
GA0750002,LENOX,CWS,1083,L,GW,"LENOX, Cook County, GA",32.019096973404125,-84.48930572580333,286,4,0,High,red
GA0750003,SPARKS,CWS,1887,L,GW,"SPARKS, Cook County, GA",33.38991103136852,-83.14918030118058,57,2,1,High,red
GA0750004,DNR-REED BINGHAM STATE PARK,TNCWS,92,S,GW,"ADEL, Cook County, GA",32.03919608266716,-83.0025917569996,33,0,0,Low,yellow
GA0750037,CIRCLESTONE COUNTRY CLUB,TNCWS,92,P,GW,"ADEL, Cook County, GA",33.428368655715644,-83.22871870072387,46,0,0,Low,yellow
GA0750043,PIDDLER`S RIDGE RV PARK,TNCWS,31,P,GW,"ADEL, Cook County, GA",33.48993781387447,-83.31529740460361,12,0,0,Low,yellow
GA0750044,CIRCLESTONE CC SUBDIVISION,CWS,51,P,GW,"SAVANNAH, Cook County, GA",32.0835,-81.0998,21,0,0,Low,yellow
GA0750046,PARKER'S CATFISH HOUSE,TNCWS,270,P,GW,"NASHVILLE, Cook County, GA",33.53804888978731,-84.2155281947304,4,0,0,Low,yellow
GA0770001,GRANTVILLE,CWS,3221,L,SWP,"GRANTVILLE, Coweta County, GA",31.99601629050872,-84.8640247435013,117,30,0,High,red
GA0770002,NEWNAN UTILITIES,CWS,49987,L,SW,"NEWNAN, Coweta County, GA",32.98358980957631,-83.38528714927503,36,0,0,Low,yellow
GA0770003,SENOIA,CWS,6367,L,SW,"SENOIA, Coweta County, GA",32.152627428453684,-82.42621238182895,56,15,0,High,red
GA0770004,TURIN,CWS,671,L,GW,"TURIN, Coweta County, GA",33.546784598965075,-83.15309651316984,55,0,0,Low,yellow
GA0770014,MEADOWVIEW SUBDIVISION,CWS,146,P,GW,"ROSWELL, Coweta County, GA",34.0232,-84.3616,121,4,1,High,red
GA0770021,SOUTH OAKS MOBILE HOME PARK,CWS,471,P,GW,"DALLAS, Coweta County, GA",33.30473888454552,-84.4606543709183,64,0,1,Medium,orange
GA0770030,SWEETBRIAR MOBILE HOME PARK,CWS,270,P,GW,"JACKSON, Coweta County, GA",32.212576075809885,-82.99297917294126,91,1,0,High,red
GA0770037,WEDGEWOOD ESTATES SUBDIVISION,CWS,120,P,GW,"ROSWELL, Coweta County, GA",34.0232,-84.3616,121,1,1,High,red
GA0770042,COWETA WATER & SEWER AUTH.,CWS,92907,L,SW,"NEWNAN, Coweta County, GA",33.45075404174523,-83.26279929967463,31,14,0,High,red
GA0770103,PINE HILL EST/HEARTHSTONE SUBDIVISION,CWS,341,P,GW,"ROSWELL, Coweta County, GA",34.0232,-84.3616,109,0,1,Medium,orange
GA0770114,ASPEN WOODS LAKE,CWS,88,P,GW,"ROSWELL, Coweta County, GA",34.0232,-84.3616,105,4,1,High,red
GA0770117,THE GATES SUBDIVISION,CWS,369,P,GW,"ROSWELL, Coweta County, GA",34.0232,-84.3616,95,1,0,High,red
GA0770119,PEACHTREE LANDING SUBDIVISION,CWS,94,P,GW,"ROSWELL, Coweta County, GA",34.0232,-84.3616,90,0,3,Medium,orange
GA0770136,DNR-CHATTAHOOCHEE BEND STATE PK VIST CEN,TNCWS,25,S,GW,"HELEN, Coweta County, GA",31.705393848736115,-83.11118819045929,18,0,1,Medium,orange
GA0770137,DNR-CHATTAHOOCHEE BEND STATE PK CAMPGRND,TNCWS,156,S,GW,"HELEN, Coweta County, GA",32.445016051546695,-84.69832962942104,16,0,0,Low,yellow
GA0790000,ROBERTA,CWS,3221,L,GW,"ROBERTA, Crawford County, GA",33.43356194577656,-83.38698313134137,47,8,0,High,red
GA0790001,GSA-CAMP MARTHA JOHNSTON,TNCWS,15,P,GW,"LIZELLA, Crawford County, GA",32.30978682114159,-83.36273035102617,12,0,0,Low,yellow
GA0790007,CAMP ECHECONNEE,TNCWS,234,P,GW,"LIZELLA, Crawford County, GA",33.18053068245971,-83.39729853816716,25,7,0,High,red
GA0790008,CRAWFORD COUNTY ESTATES,CWS,167,P,GW,"ATLANTA, Crawford County, GA",33.749,-84.388,47,5,0,High,red
GA0790012,CRAWFORD CO.-MUSELLA WATER SYSTEM,CWS,127,P,GW,"ROBERTA, Crawford County, GA",31.673361923179957,-82.06450756632188,96,4,0,High,red
GA0790017,CRAWFORD COUNTY WATER SYSTEM,CWS,2392,L,GW,"ROBERTA, Crawford County, GA",32.154600221012544,-83.94470653393253,10,0,0,Low,yellow
GA0810000,ARABI,CWS,480,L,GW,"ARABI, Crisp County, GA",33.21518386410619,-82.18073007830802,11,0,0,Low,yellow
GA0810001,CORDELE,CWS,11880,L,GW,"CORDELE, Crisp County, GA",33.36786354764321,-83.27798180624534,6,0,0,Low,yellow
GA0810002,CRISP ACADEMY SCHOOL,NTNCWS,386,P,GW,"CORDELE, Crisp County, GA",33.09544879349308,-82.59544249426497,43,12,0,High,red
GA0810003,DNR-GA VETERANS MEMORIAL PARK,TNCWS,80,S,GW,"CORDELE, Crisp County, GA",33.260699405031424,-83.84095095322336,20,6,0,High,red
GA0810004,CRISP COUNTY PUBLIC WORKS,NTNCWS,46,L,GW,"CORDELE, Crisp County, GA",32.82747102712179,-82.6788089175962,16,0,0,Low,yellow
GA0810006,RICONNUCK KNOLL SUBDIVISION,CWS,170,P,GW,"CORDELE, Crisp County, GA",32.236338760949685,-82.10452748622512,94,7,0,High,red
GA0810007,CEDAR LAKE ESTATES,CWS,84,P,GW,"CORDELE, Crisp County, GA",33.49989294585492,-82.97644836511644,85,3,1,High,red
GA0810008,TRULUCK-DOGWOOD HILLS SUBDIVISION,CWS,54,P,GW,"CORDELE, Crisp County, GA",32.12634991256627,-84.62335887760915,83,0,1,Medium,orange
GA0810011,EAST CRISP APARTMENTS,CWS,46,P,GW,"CORDELE, Crisp County, GA",31.81527828834203,-82.12609446795162,108,14,1,High,red
GA0810013,TRULUCK-OAK PARK SUBDIVISION,CWS,48,P,GW,"CORDELE, Crisp County, GA",32.02027703443189,-83.78519731334264,86,0,1,Medium,orange
GA0810021,COMMUNITY WATER SYSTEM,CWS,151,P,GW,"CORDELE, Crisp County, GA",32.67164267960782,-83.39814337531573,42,1,0,High,red
GA0810022,PERLIS TRUCK STOP,TNCWS,140,P,GW,"CORDELE, Crisp County, GA",32.029341405428084,-84.2459547062891,88,9,0,High,red
GA0810044,TRULUCK-BRAN-TRE SUBDIVISION,CWS,59,P,GW,"CORDELE, Crisp County, GA",31.985212606156953,-83.55959146818024,127,0,1,Medium,orange
GA0810048,HEAVENLY WATERS RV PARK,TNCWS,42,P,GW,"CORDELE, Crisp County, GA",31.78282778842202,-82.80303260015596,59,17,0,High,red
GA0810050,TRULUCK-TIMBERLAND PLANTATION,CWS,84,P,GW,"CORDELE, Crisp County, GA",32.599973045300985,-84.84500932651117,84,2,2,High,red
GA0810051,DNR-GA VETERANS PK GOLF COURSE,TNCWS,215,S,GW,"CORDELE, Crisp County, GA",32.90076499171217,-83.84020847867947,18,0,0,Low,yellow
GA0810053,TRULUCK-SUNNYBROOK FARMS SD,CWS,92,P,GW,"CORDELE, Crisp County, GA",31.77477721488963,-84.12282690524297,87,4,1,High,red
GA0810063,LAKESIDE SUBDIVISION,TNCWS,43,P,GW,"ALBANY, Crisp County, GA",31.5785,-84.1557,11,2,0,High,red
GA0810064,LAKE BLACKSHEAR AREA,CWS,3977,L,GW,"CORDELE, Crisp County, GA",32.67912545458156,-82.694606704064,14,0,0,Low,yellow
GA0810066,WELLS BLUFF,CWS,32,P,GW,"CORDELE, Crisp County, GA",32.99481414233296,-84.3886499471262,59,0,0,Low,yellow
GA0830000,DADE COUNTY WATER AUTHORITY,CWS,16285,L,SW,"TRENTON, Dade County, GA",32.717511585420105,-83.17678811061809,21,1,0,High,red
GA0850000,DAWSONVILLE,CWS,4433,L,SWP,"DAWSONVILLE, Dawson County, GA",33.197123680362175,-82.63597581681614,25,0,0,Low,yellow
GA0850007,ETOWAH,CWS,21389,L,SW,"DAWSONVILLE, Dawson County, GA",31.925208773527885,-82.69743336584841,31,22,0,High,red
GA0850012,ATHENS BOAT CLUB,CWS,325,P,GW,"DAWSONVILLE, Dawson County, GA",32.99169444217,-84.37679509658275,49,17,2,High,red
GA0850019,PARADISE VALLEY RESORT,TNCWS,150,P,GW,"DAWSONVILLE, Dawson County, GA",33.124790081511556,-84.20066234279939,64,21,0,High,red
GA0850020,DNR-AMICALOLA FALLS STATE PARK,NTNCWS,297,S,GW,"DAWSONVILLE, Dawson County, GA",32.552626092516086,-84.17177244631225,8,3,0,High,red
GA0850025,UNDER THE HEMLOCK,TNCWS,26,P,GW,"DAWSONVILLE, Dawson County, GA",32.86858582857601,-84.01488696423618,26,3,0,High,red
GA0850026,DNR-LEN FOOTE HIKE INN LODGE,TNCWS,45,S,GW,"DAWSONVILLE, Dawson County, GA",33.59961951273133,-82.31497180888637,10,0,0,Low,yellow
GA0850027,GOLDEN RIDGE,CWS,42,P,GW,"BLAIRSVILLE, Dawson County, GA",32.019971923878906,-84.02582153620384,30,0,6,Medium,orange
GA0850029,THE VILLAGE AT PARADISE VALLEY,CWS,195,P,GW,"DAWSONVILLE, Dawson County, GA",32.449301015591445,-83.96614699636366,54,0,1,Medium,orange
GA0850031,ATLANTA MOTORSPORTS PARK,TNCWS,88,P,GW,"DAWSONVILLE, Dawson County, GA",31.823896516242534,-82.02015039489197,0,0,0,Good,green
GA0870000,ATTAPULGUS,CWS,750,L,GW,"ATTAPULGUS, Decatur County, GA",33.17741165016313,-82.32081597086838,61,53,0,High,red
GA0870001,BAINBRIDGE,CWS,15125,L,GW,"BAINBRIDGE, Decatur County, GA",32.09071814897399,-83.20790049773699,18,1,0,High,red
GA0870002,BRINSON,CWS,552,L,GW,"BRINSON, Decatur County, GA",32.42903933068664,-82.71105786791372,83,39,1,High,red
GA0870003,CLIMAX,CWS,383,L,GW,"CLIMAX, Decatur County, GA",32.98670675101341,-83.67111754968003,41,2,0,High,red
GA0870004,DECATUR COUNTY INDUSTRIAL PARK,CWS,1100,L,GW,"BAINBRIDGE, Decatur County, GA",31.715923921953905,-84.6515721269918,8,2,0,High,red
GA0870005,BASF CORPORATION,NTNCWS,200,P,GW,"ATTAPULGUS, Decatur County, GA",31.894946595340073,-83.05674341714962,19,0,0,Low,yellow
GA0870007,RBE II,CWS,124,P,GW,"BAINBRIDGE, Decatur County, GA",33.28122321696986,-83.16736017891303,42,16,0,High,red
GA0870022,AT EASE CAMPGROUND AND MARINA,TNCWS,60,P,GW,"BAINBRIDGE, Decatur County, GA",33.08403314250228,-84.57516776318292,51,0,0,Low,yellow
GA0870030,MEADOWBROOK SUBDIVISION,CWS,68,P,GW,"BAINBRIDGE, Decatur County, GA",32.70562778646514,-84.33384479531468,134,8,4,High,red
GA0870037,USCE-HALES LANDING,TNCWS,25,F,GW,"BAINBRIDGE, Decatur County, GA",31.966970854855393,-84.07328220692854,29,6,0,High,red
GA0870040,USCE RIVER JUNCTION ACCESS AREA,TNCWS,20,F,GW,"BAINBRIDGE, Decatur County, GA",32.25557947098042,-83.6718882501493,21,0,0,Low,yellow
GA0870049,USCE-CHATTAHOOCHEE PARK,TNCWS,45,F,GW,"BAINBRIDGE, Decatur County, GA",31.683445139957374,-82.72743516640678,16,0,0,Low,yellow
GA0870055,"RED BLUFF ENTERPRISES, LLC",CWS,266,P,GW,"BAINBRIDGE, Decatur County, GA",33.56400409333536,-84.0792625116123,29,9,0,High,red
GA0870058,SP TRUCK STOP,TNCWS,217,P,GW,"BAINBRIDGE, Decatur County, GA",31.934267374305296,-83.21822756023855,11,5,0,High,red
GA0870060,POND HOUSE RESTAURANT,TNCWS,50,P,GW,"BAINBRIDGE, Decatur County, GA",32.30379000221519,-83.71420767336939,30,4,0,High,red
GA0870061,FEDERATED TRUST SUBDIVISION WATER SYS.,CWS,130,P,GW,"BAINBRIDGE, Decatur County, GA",33.3067677825196,-84.07408040694645,144,3,4,High,red
GA0870065,WRIGHT`S TRAILER PARK,CWS,51,P,GW,"BAINBRIDGE, Decatur County, GA",33.37118782149943,-82.7166300179186,34,0,1,Medium,orange
GA0870070,BIG HOUSE-ATTAPULGUS,TNCWS,100,P,GW,"BAINBRIDGE, Decatur County, GA",32.3170415579492,-82.00019957878602,31,2,0,High,red
GA0870071,MR BIG`S APARTMENTS,TNCWS,45,P,GW,"CAMILLA, Decatur County, GA",33.55900748958772,-84.85967360769396,35,6,0,High,red
GA0870073,DUKES WATER SYSTEM,TNCWS,120,P,GW,"BAINBRIDGE, Decatur County, GA",33.50493072732711,-84.87715252398802,12,0,0,Low,yellow
GA0870075,BAINBRIDGE EXPRESS #2,TNCWS,50,P,GW,"BAINBRIDGE, Decatur County, GA",32.39041477503869,-83.55174372627037,58,24,0,High,red
GA0870076,PACIFIC TOMATO GROWERS,TNCWS,200,P,GW,"BAINBRIDGE, Decatur County, GA",32.034229953941804,-84.34571187815718,4,0,0,Low,yellow
GA0870080,SOUTHERN RACEWAY MX,TNCWS,57,P,GW,"BAINBRIDGE, Decatur County, GA",32.29294734163945,-84.504285134445,0,0,0,Good,green
GA0890001,DEKALB COUNTY,CWS,743000,L,SW,"STONE MOUNTAIN, DeKalb County, GA",33.7673,-84.2806,8,0,0,Low,yellow
GA0910000,CHAUNCEY,CWS,305,L,GW,"CHAUNCEY, Dodge County, GA",32.593995979186616,-82.82994027342578,57,1,0,High,red
GA0910001,CHESTER,CWS,1808,L,GW,"CHESTER, Dodge County, GA",32.760065604964566,-82.89909196593045,28,3,0,High,red
GA0910002,EASTMAN,CWS,8844,L,GW,"EASTMAN, Dodge County, GA",33.04364702464446,-82.78666152986474,27,4,0,High,red
GA0910003,RHINE,CWS,340,L,GW,"RHINE, Dodge County, GA",32.64879903467237,-82.48534066296213,62,0,0,Low,yellow
GA0910030,DNR-DODGE CO PUBLIC FISHING,TNCWS,50,S,GW,"EASTMAN, Dodge County, GA",32.18971022944345,-82.75879197095587,28,3,0,High,red
GA0910032,BRIDGES OF HOPE II,NTNCWS,35,P,GW,"HOMERVILLE, Dodge County, GA",32.50981005853946,-83.21703500430668,8,3,0,High,red
GA0930000,BYROMVILLE,CWS,495,L,GW,"BYROMVILLE, Dooly County, GA",32.595737823547516,-83.47236828647274,27,7,0,High,red
GA0930001,LILLY,CWS,200,L,GW,"LILLY, Dooly County, GA",31.828733785919425,-82.30931811809117,32,0,0,Low,yellow
GA0930002,PINEHURST,CWS,1649,L,GW,"PINEHURST, Dooly County, GA",32.8887608231666,-83.7575048104592,52,0,1,Medium,orange
GA0930003,UNADILLA,CWS,3469,L,GW,"UNADILLA, Dooly County, GA",31.834679656893204,-82.60675416405677,51,11,0,High,red
GA0930004,VIENNA,CWS,3540,L,GW,"VIENNA, Dooly County, GA",32.70399767589478,-82.66433878126968,24,0,0,Low,yellow
GA0930032,DOOLING,CWS,141,L,GW,"DOOLING, Dooly County, GA",32.87398180111639,-84.29721785490933,66,3,0,High,red
GA0930034,"UNADILLA HOLDING COMPANY, LLC",TNCWS,85,P,GW,"UNADILLA, Dooly County, GA",31.81078138718167,-84.11047112263252,9,0,0,Low,yellow
GA0950000,ALBANY,CWS,92208,L,GW,"ALBANY, Dougherty County, GA",31.5785,-84.1557,39,10,0,High,red
GA0950006,CARVER SUBDIVISION,CWS,92,P,GW,"ALBANY, Dougherty County, GA",31.5785,-84.1557,19,0,0,Low,yellow
GA0950010,HOLLANDS FOLLY SUBDIVISION  #1,CWS,356,P,GW,"ALBANY, Dougherty County, GA",31.5785,-84.1557,11,0,0,Low,yellow
GA0950011,HOLLANDS AND HATCHER S/D,CWS,51,P,GW,"ALBANY, Dougherty County, GA",31.5785,-84.1557,13,1,0,High,red
GA0950035,USMC-LOGISTICS,CWS,3350,F,GW,"ALBANY, Dougherty County, GA",31.5785,-84.1557,28,0,0,Low,yellow
GA0950065,CREEKSIDE RV PARK,CWS,240,P,GW,"ALBANY, Dougherty County, GA",31.5785,-84.1557,39,0,0,Low,yellow
GA0950066,NEW BEGINNINGS CHRISTIAN SCHOOL,NTNCWS,70,P,GW,"ALBANY, Dougherty County, GA",31.5785,-84.1557,19,8,1,High,red
GA0970000,DOUGLASVILLE-DOUGLAS COUNTY WSA,CWS,110219,L,SW,"DOUGLASVILLE, Douglas County, GA",32.75061645064194,-84.83912040731109,6,0,0,Low,yellow
GA0990000,BLAKELY,CWS,5716,L,GW,"BLAKELY, Early County, GA",32.44601972213254,-84.80758482473743,28,11,0,High,red
GA0990001,DAMASCUS,CWS,240,L,GW,"DAMASCUS, Early County, GA",32.87107703237573,-83.79445983974016,69,23,0,High,red
GA0990002,JAKIN,CWS,262,L,GW,"JAKIN, Early County, GA",32.73665643826463,-82.46627574662415,27,0,0,Low,yellow
GA0990004,DNR-KOLOMOKI SP-STAY USE,TNCWS,200,S,GW,"BLAKELY, Early County, GA",33.175610589710736,-84.89446518999762,6,1,0,High,red
GA0990006,PAPER MILL WS,NTNCWS,475,P,GW,"CEDAR SPRINGS, Early County, GA",32.93454201984178,-84.49588526033163,8,0,0,Low,yellow
GA0990007,WOODYARD WS,NTNCWS,75,P,GW,"CEDAR SPRINGS, Early County, GA",33.38198489720052,-83.52531698801224,17,0,0,Low,yellow
GA0990008,REPUBLIC CONDUIT,NTNCWS,125,P,GW,"CEDAR SPRINGS, Early County, GA",33.43610021383893,-84.27375464064622,9,0,0,Low,yellow
GA0990009,LOG CABIN RESTAURANT,TNCWS,73,P,GW,"BLAKELY, Early County, GA",32.58109752280068,-83.75100288985173,12,7,0,High,red
GA0990022,DNR-KOLOMOKI SP-GROUP CAMP,TNCWS,200,S,GW,"BLAKELY, Early County, GA",32.68423855990695,-82.10208181492884,9,0,0,Low,yellow
GA0990023,DNR-KOLOMOKI SP-DAY USE AREA,TNCWS,200,S,GW,"BLAKELY, Early County, GA",32.51765457812502,-82.74471368308775,3,0,0,Low,yellow
GA0990024,DNR-KOLOMOKI SP-MUSEUM,TNCWS,200,S,GW,"BLAKELY, Early County, GA",32.89310248159071,-83.36852465628752,7,0,0,Low,yellow
GA1010000,ECHOLS COUNTY WATER AUTHORITY,CWS,972,L,GW,"STATENVILLE, Echols County, GA",33.10490902886308,-84.29035416020398,144,80,1,High,red
GA1010001,LITTLE RIVER ESTATES MHP,CWS,54,P,GW,"LAKE PARK, Echols County, GA",33.35334533764051,-82.2425928777357,136,42,0,High,red
GA1010006,J.B.G. WATER SYSTEM,TNCWS,70,P,GW,"LAKE PARK, Echols County, GA",32.890831932113606,-84.26626724500315,3,0,0,Low,yellow
GA1010007,COTTONWOOD CAMP,TNCWS,150,P,GW,"STATENVILLE, Echols County, GA",32.84163237195591,-84.80560848976417,18,0,0,Low,yellow
GA1030000,GUYTON,CWS,2394,L,GW,"GUYTON, Effingham County, GA",33.372201649738024,-84.1798283259994,20,0,1,Medium,orange
GA1030001,RINCON WATER SYSTEM,CWS,15654,L,SWP,"RINCON, Effingham County, GA",31.814210990753857,-84.21391229950812,40,3,0,High,red
GA1030002,SPRINGFIELD,CWS,3100,L,GW,"SPRINGFIELD, Effingham County, GA",32.17630836079657,-81.97173587543237,49,2,0,High,red
GA1030006,SPRINGFIELD CENTRAL ELEMENTARY,NTNCWS,50,L,GW,"SPRINGFIELD, Effingham County, GA",31.75143557089861,-82.00709110614925,11,0,0,Low,yellow
GA1030007,INTERFOR U.S. INC. - MELDRIM DIVISION,NTNCWS,220,P,GW,"MELDRIM, Effingham County, GA",33.05028498787532,-82.39144210433204,26,9,0,High,red
GA1030010,LAKESIDE FARMS / BLOOMINGDALE,CWS,993,P,GW,"SAVANNAH, Effingham County, GA",32.0835,-81.0998,10,0,0,Low,yellow
GA1030011,MELDRIM LAKES,CWS,203,P,GW,"SAVANNAH, Effingham County, GA",32.0835,-81.0998,19,2,0,High,red
GA1030012,WESTWOOD HEIGHTS SUBDIVISION,CWS,1370,P,GW,"SAVANNAH, Effingham County, GA",32.0835,-81.0998,34,6,2,High,red
GA1030016,FOXBOW FARMS,CWS,723,P,GW,"SAVANNAH, Effingham County, GA",32.0835,-81.0998,9,0,0,Low,yellow
GA1030017,FOXBOW NORTH SUBDIVISION,CWS,497,P,GW,"SAVANNAH, Effingham County, GA",32.0835,-81.0998,9,0,0,Low,yellow
GA1030018,PECAN GROVE S/D,CWS,182,P,GW,"SAVANNAH, Effingham County, GA",32.0835,-81.0998,21,0,0,Low,yellow
GA1030028,PINEORA WATER SYSTEM,CWS,94,P,GW,"GUYTON, Effingham County, GA",32.0835,-81.0998,9,0,0,Low,yellow
GA1030031,LAKE CHERIE MOBILE HOME PARK,CWS,44,P,GW,"RINCON, Effingham County, GA",33.34172406119786,-81.98609093445032,22,1,0,High,red
GA1030033,TELFORD PARK LLC,CWS,33,P,GW,"EDEN, Effingham County, GA",31.884950090114728,-83.18057466888966,85,1,0,High,red
GA1030036,RED GATE MOBILE HOME PARK,CWS,80,P,GW,"TOWNSEND, Effingham County, GA",32.05672767555958,-82.89273242506479,47,19,1,High,red
GA1030047,GEORGIA POWER-PLT. MCINTOSH,NTNCWS,90,P,GW,"RINCON, Effingham County, GA",33.749,-84.388,3,0,0,Low,yellow
GA1030067,NEW EBENEZER RETREAT CENTER,TNCWS,125,P,GW,"RINCON, Effingham County, GA",32.920058940142425,-83.53684508890905,60,24,0,High,red
GA1030076,GEORGIA-PACIFIC SAVANNAH RIVER LLC,NTNCWS,1001,P,GW,"RINCON, Effingham County, GA",33.354502325699926,-83.60233705135981,0,0,0,Good,green
GA1030077,GOSHEN VILLA SUBDIVISION,CWS,632,P,GW,"SAVANNAH, Effingham County, GA",32.0835,-81.0998,21,0,0,Low,yellow
GA1030079,PADDLEFORD PLANTATION SUBDIVISION,CWS,192,P,GW,"SAVANNAH, Effingham County, GA",32.0835,-81.0998,18,0,0,Low,yellow
GA1030081,TUSCULUM LIVING WATER SYSTEM,CWS,79,P,GW,"SPRINGFIELD, Effingham County, GA",31.87931628584546,-83.55128389715033,93,1,3,High,red
GA1030082,AURIGA FARMS,CWS,585,P,GW,"SAVANNAH, Effingham County, GA",32.0835,-81.0998,17,0,0,Low,yellow
GA1030083,GOSHEN APARTMENTS,CWS,52,P,GW,"SAVANNAH, Effingham County, GA",32.0835,-81.0998,45,0,0,Low,yellow
GA1030084,HUNTS MOBILE HOME PARK,CWS,32,P,GW,"RINCON, Effingham County, GA",32.36550542491549,-83.83005597457576,175,24,0,High,red
GA1030087,SOUTH EFFINGHAM WOODS/EFFINGHAM FOREST,CWS,340,P,GW,"STATESBORO, Effingham County, GA",32.98169174156729,-83.73498490706812,93,0,2,Medium,orange
GA1030088,HAWK HAMMOCK,CWS,86,P,GW,"SAVANNAH, Effingham County, GA",32.0835,-81.0998,24,3,0,High,red
GA1030090,CREEKWOOD FARMS SUBDIVISION,CWS,71,P,GW,"SAVANNAH, Effingham County, GA",32.0835,-81.0998,37,0,0,Low,yellow
GA1030091,MIDLAND ESTATES,CWS,60,P,GW,"SAVANNAH, Effingham County, GA",32.0835,-81.0998,0,0,0,Good,green
GA1030092,COACHWOOD ESTATES,CWS,83,P,GW,"SAVANNAH, Effingham County, GA",32.0835,-81.0998,336,2,0,High,red
GA1030093,SADDLEBROOK SUBDIVISION,CWS,398,P,GW,"SAVANNAH, Effingham County, GA",32.0835,-81.0998,46,0,0,Low,yellow
GA1030095,CONIFER CROSSING/PINE HILL,CWS,759,P,GW,"SAVANNAH, Effingham County, GA",32.0835,-81.0998,43,0,0,Low,yellow
GA1030097,LEE VILLAGE SUBDIVISION,CWS,310,P,GW,"SAVANNAH, Effingham County, GA",32.0835,-81.0998,27,4,0,High,red
GA1030099,EDWARDS MOBILE HOME PARK,CWS,38,P,GW,"POOLER, Effingham County, GA",33.089016475444375,-84.13576635528541,26,11,0,High,red
GA1030100,HICKORY KNOB SUBDIVISION,CWS,671,P,GW,"NEWINGTON, Effingham County, GA",32.43818974233267,-84.84837761505008,48,0,0,Low,yellow
GA1030101,DEERWOOD S/D-GREEN PEACE RV PK,CWS,133,P,GW,"ATLANTA, Effingham County, GA",33.749,-84.388,43,3,0,High,red
GA1030102,RIVER ROAD FARMS,CWS,273,P,GW,"SAVANNAH, Effingham County, GA",32.0835,-81.0998,12,0,0,Low,yellow
GA1030103,WATERFORD PLANTATION SUBDIVISION,CWS,182,P,GW,"SAVANNAH, Effingham County, GA",32.0835,-81.0998,20,0,0,Low,yellow
GA1030104,CYPRESS LAKES SUBDIVISION,CWS,44,P,GW,"SAVANNAH, Effingham County, GA",32.0835,-81.0998,26,1,1,High,red
GA1030105,ROSEWOOD WATER SYSTEM,CWS,52,P,GW,"SAVANNAH, Effingham County, GA",32.0835,-81.0998,7,0,0,Low,yellow
GA1030106,COVENTRY PLANTATION,CWS,122,P,GW,"SAVANNAH, Effingham County, GA",32.0835,-81.0998,8,0,0,Low,yellow
GA1030107,SOUTH POINTE SUBDIVISION,CWS,491,P,GW,"SAVANNAH, Effingham County, GA",32.0835,-81.0998,23,0,1,Medium,orange
GA1030108,LAKEWOOD SUBDIVISION,CWS,291,P,GW,"SAVANNAH, Effingham County, GA",32.0835,-81.0998,13,0,0,Low,yellow
GA1030109,HUNTERS MILL SUBDIVISION,CWS,114,P,GW,"SAVANNAH, Effingham County, GA",32.0835,-81.0998,22,0,0,Low,yellow
GA1030110,MILL CREEK SUBDIVISION,CWS,242,P,GW,"SAVANNAH, Effingham County, GA",32.0835,-81.0998,18,0,1,Medium,orange
GA1030111,SANDHILL ELEMENTARY,NTNCWS,600,L,GW,"SPRINGFIELD, Effingham County, GA",31.887082414428058,-82.10393241713763,21,4,0,High,red
GA1030112,ROYAL OAKS PLANTATION,CWS,252,P,GW,"SAVANNAH, Effingham County, GA",32.0835,-81.0998,15,0,0,Low,yellow
GA1030115,TWENTY-ONE CENTER,NTNCWS,44,P,GW,"SAVANNAH, Effingham County, GA",32.0835,-81.0998,9,0,1,Medium,orange
GA1030116,HAMPTON CREEK SUBDIVISION,CWS,146,P,GW,"SAVANNAH, Effingham County, GA",32.0835,-81.0998,12,0,0,Low,yellow
GA1030117,CASTLEWOOD-CLEARVIEW-WARNER FIELDS,CWS,393,P,GW,"SAVANNAH, Effingham County, GA",32.0835,-81.0998,16,0,0,Low,yellow
GA1030119,HUNTINGTON STATION,CWS,382,P,GW,"SAVANNAH, Effingham County, GA",32.0835,-81.0998,18,0,0,Low,yellow
GA1030120,BARRINGTON SUBDIVISION,CWS,75,P,GW,"SAVANNAH, Effingham County, GA",32.0835,-81.0998,29,3,0,High,red
GA1030122,SANDY WOODS SUBDIVISION,CWS,36,P,GW,"SAVANNAH, Effingham County, GA",32.0835,-81.0998,58,0,1,Medium,orange
GA1030126,AZALEA POINT,CWS,1037,P,GW,"SAVANNAH, Effingham County, GA",32.0835,-81.0998,5,0,0,Low,yellow
GA1030127,HIDDEN LAKES,CWS,42,P,GW,"SAVANNAH, Effingham County, GA",32.0835,-81.0998,19,0,0,Low,yellow
GA1030128,LOW GROUND FARMS SUBDIVISION,CWS,91,P,GW,"SAVANNAH, Effingham County, GA",32.0835,-81.0998,16,0,0,Low,yellow
GA1030129,BUCKFIELD PLANTATION/PLEASANT HILL S/D,CWS,190,P,GW,"SAVANNAH, Effingham County, GA",32.0835,-81.0998,10,0,0,Low,yellow
GA1030130,RAHN STATION SUBDIVISION,CWS,49,P,GW,"SAVANNAH, Effingham County, GA",32.0835,-81.0998,8,0,0,Low,yellow
GA1030131,EFFINGHAM COUNTY SURFACE WATER SYSTEM,CWS,9869,L,SWP,"SPRINGFIELD, Effingham County, GA",32.44841202709296,-84.42321420301103,15,2,1,High,red
GA1030132,WALNUT GROVE SUBDIVISION,CWS,55,P,GW,"SPRINGFIELD, Effingham County, GA",32.025171314800254,-82.22419697101441,19,0,5,Medium,orange
GA1030133,STILLWOOD SUBDIVISION,CWS,49,P,GW,"SAVANNAH, Effingham County, GA",32.0835,-81.0998,12,0,0,Low,yellow
GA1030134,JAMESTOWN SUBDIVISION,CWS,187,P,GW,"SAVANNAH, Effingham County, GA",32.0835,-81.0998,15,0,0,Low,yellow
GA1030136,EAGLE POINTE SUBDIVISION,CWS,195,P,GW,"SPRINGFIELD, Effingham County, GA",32.564152096762015,-82.63689932644186,87,0,3,Medium,orange
GA1030138,MALLARD POINTE/DRAKE LANDING,CWS,81,P,GW,"SAVANNAH, Effingham County, GA",32.0835,-81.0998,7,0,0,Low,yellow
GA1030143,SHADOWBROOK SUBDIVISION,CWS,224,P,GW,"SAVANNAH, Effingham County, GA",32.0835,-81.0998,15,3,0,High,red
GA1030144,STONEGATE SUBDIVISION,CWS,198,P,GW,"SAVANNAH, Effingham County, GA",32.0835,-81.0998,11,0,0,Low,yellow
GA1030145,GRIFFIN LAKES CAMPGROUND,TNCWS,95,P,GW,"GUYTON, Effingham County, GA",31.6492017845607,-84.31492066977185,22,0,0,Low,yellow
GA1030146,HUNTER`S CHASE / ABBY LANE,CWS,211,P,GW,"SPRINGFIELD, Effingham County, GA",32.86046973532588,-84.47360347104171,12,0,1,Medium,orange
GA1030147,EAGLE`S LANDING SUBDIVISION WATER SYSTEM,CWS,26,P,GW,"SAVANNAH, Effingham County, GA",32.0835,-81.0998,20,0,0,Low,yellow
GA1030149,LONG ACRES RD SUBDIVISION,CWS,45,L,GW,"SPRINGFIELD, Effingham County, GA",32.10577050364483,-83.69255392206489,6,0,1,Medium,orange
GA1030152,BERRYVILLE (FKA INDIGO WOODS),CWS,26,L,GW,"SPRINGFIELD, Effingham County, GA",33.1074265548891,-83.51299902779246,11,0,2,Medium,orange
GA1030154,COURTHOUSE ROAD,NTNCWS,26,L,GW,"SPRINGFIELD, Effingham County, GA",33.51598156452823,-83.64307141644531,27,0,0,Low,yellow
GA1030155,MELDRIM APARTMENTS,CWS,70,P,GW,"SAVANNAH, Effingham County, GA",32.0835,-81.0998,5,0,0,Low,yellow
GA1030157,PENNINGTON ESTATES SUBDIVISION,CWS,49,P,GW,"SAVANNAH, Effingham County, GA",32.0835,-81.0998,9,0,0,Low,yellow
GA1030158,OLD DIXIE ESTATES,CWS,25,P,GW,"SAVANNAH, Effingham County, GA",32.0835,-81.0998,0,0,0,Good,green
GA1030159,EFFINGHAM CO IDA I-16 INDUSTRIAL PARK,NTNCWS,25,L,GW,"SPRINGFIELD, Effingham County, GA",33.249321309225714,-84.73099946609692,3,0,0,Low,yellow
GA1030160,GREENBRIAR SUBDIVISION,CWS,78,L,GW,"SPRINGFIELD, Effingham County, GA",31.808111609326826,-83.41241094507978,32,0,2,Medium,orange
GA1030161,SOUTHBROOK SUBDIVISION,CWS,47,L,GW,"SPRINGFIELD, Effingham County, GA",31.72380885925632,-83.65040132710266,9,0,1,Medium,orange
GA1030163,COPPERFIELD ESTATES,CWS,60,P,GW,"SPRINGFIELD, Effingham County, GA",32.0835,-81.0998,1,0,1,Medium,orange
GA1030166,HICKORY KNOB PHASE 13,CWS,25,P,GW,"RINCON, Effingham County, GA",33.03154281136805,-82.97580183193715,0,0,0,Good,green
GA1050000,BOWMAN WATER SYSTEM,CWS,1299,L,GW,"BOWMAN, Elbert County, GA",32.22929148182246,-83.2941145133327,27,0,0,Low,yellow
GA1050001,ELBERTON,CWS,7800,L,SW,"ELBERTON, Elbert County, GA",33.19822054789795,-82.77335140161509,4,0,0,Low,yellow
GA1050003,BOBBY BROWN PARK,TNCWS,180,L,GW,"ELBERTON, Elbert County, GA",33.52390556466545,-84.15216864877628,42,0,0,Low,yellow
GA1050009,WHISPERING PINES MHP,CWS,100,P,GW,"ELBERTON, Elbert County, GA",32.67978189286325,-83.65348240211952,22,3,1,High,red
GA1050012,HEARDMONT NURSING HOME,CWS,60,P,GW,"ELBERTON, Elbert County, GA",31.761475942488577,-84.6069177338727,102,0,3,Medium,orange
GA1050013,NANCY HART NURSING CENTER,CWS,67,P,GW,"ELBERTON, Elbert County, GA",32.143383097155315,-82.68219044889541,108,0,2,Medium,orange
GA1050021,ELBERT CO FISH & GAME CLUB,TNCWS,140,P,GW,"WATKINSVILLE, Elbert County, GA",33.174223564412884,-83.31114356778804,14,0,0,Low,yellow
